__time,horn/beat/motor_cmd,horn/beat/cmd_vel_revs,drum/beat/face_jump,drum/beat/cmd_pos,drum/beat/cmd_vel,drum/beat/err_deg,drum/beat/err_ms,drum/beat/pos_frac,drum/beat/motor_cmd,drum/beat/cmd_vel_revs,horn/cam/locked,horn/cam/accel,horn/cam/rev_offset,horn/cam/just_planned,horn/cam/just_locked,drum/cam/locked,drum/cam/accel,drum/cam/rev_offset,drum/cam/just_planned,drum/cam/just_locked,horn/enc/enc0_frac,horn/enc/enc1_frac,horn/enc/est_frac,drum/enc/enc0_frac,drum/enc/enc1_frac,drum/enc/est_frac,horn/vel_est/motor,horn/vel_est/fused,horn/vel_est/enc1,drum/vel_est/motor,drum/vel_est/fused,drum/vel_est/enc1,beat/phase,beat/subdivision,state/ctrl,state/drive,horn/speed/rpm,horn/speed/ref_rpm,drum/speed/rpm,drum/speed/ref_rpm,horn/posctrl/pos/cmd,horn/posctrl/pos/traj,horn/posctrl/pos/meas,horn/posctrl/vel/traj,horn/posctrl/vel/meas,horn/posctrl/torque/cmd,horn/posctrl/torque/meas,horn/posctrl/torque/ff,drum/posctrl/pos/cmd,drum/posctrl/pos/traj,drum/posctrl/pos/meas,drum/posctrl/vel/traj,drum/posctrl/vel/meas,drum/posctrl/torque/cmd,drum/posctrl/torque/meas,drum/posctrl/torque/ff,horn/slip/offset,horn/slip/raw,horn/slip/vel,horn/slip/err,drum/slip/offset,drum/slip/raw,drum/slip/vel,drum/slip/err,horn/beat/face_jump,horn/beat/cmd_pos,horn/beat/cmd_vel,horn/beat/err_deg,horn/beat/err_ms,horn/beat/pos_frac,clock/bpm,clock/period_us,clock/raw_period_us,clock/pred_err_us,clock/xest_err_us,clock/running,clock/locked
119.384,0.0568,0.0,0.0,27.3721,0.9998,-1.6599,-4.6118,0.8223,0.0221,0.0,1.0,0.5377,0.0,0.0,0.0,1.0,0.5436,-0.0,0.0,0.0,0.5542,0.0001,0.9999,0.8223,0.9995,0.9995,-0.0424,-0.0424,-0.1039,0.0001,0.0001,0.0414,0.0,2.0,1.0,1.0,,,,,,,,,,,,,,,,,,,,,,,,,,,,,,,,,,,,,,,,,
119.409,0.0568,0.0,0.0,27.3721,0.9998,-1.6599,-4.6118,0.8223,0.0221,0.0,1.0,0.5377,0.0,0.0,0.0,1.0,0.5436,-0.0,0.0,0.0,0.5542,0.0001,0.9999,0.8223,0.9995,0.9995,-0.051,-0.051,0.0514,-0.0004,-0.0004,0.0147,0.0,2.0,1.0,,3.0601,0.0,0.0216,0.0,101.2622,101.2622,101.2617,0.0,-0.1874,0.0063,0.0048,0.0,115.6315,115.6315,115.6294,0.0,-0.0015,0.0014,-0.0009,0.0,0.4457,0.4459,0.0,0.0002,0.1772,0.1772,-0.0,0.0,0.0,27.3999,0.9998,-0.9849,-2.7363,0.5542,,,,,,,
119.41,,,,,,,,,,,,,,,,,,,,,,,,,,,,,,,,,,,,1.0,,,,,,,,,,,,,,,,,,,,,,,,,,,,,,,,,,,,,,,,,
119.434,0.0568,0.0,0.0,27.3721,0.9998,-1.6599,-4.6118,0.8223,0.0221,0.0,1.0,0.5377,0.0,0.0,0.0,1.0,0.5436,-0.0,0.0,0.0,0.5542,0.0001,0.9999,0.8223,0.9995,0.9995,-0.0557,-0.0557,0.0579,0.0025,0.0025,0.0686,0.0,2.0,1.0,1.0,3.3443,0.0,0.1498,0.0,101.2622,101.2622,101.2617,0.0,-0.2048,0.0067,0.005,0.0,115.6315,115.6315,115.6294,0.0,0.0104,0.001,-0.0019,0.0,0.4457,0.4459,0.0,0.0003,0.1772,0.1772,-0.0,-0.0,0.0,27.3999,0.9998,-0.9849,-2.7363,0.5542,,,,,,,
119.459,,,,,,,,,,,,,,,,,,,,,,,,,,,,,,,,,,,,,3.4416,0.0,0.0169,0.0,101.2622,101.2622,101.2619,-0.0017,-0.2108,0.0069,0.0041,0.0,115.6315,115.6315,115.6294,0.0026,,,,,,,,,,,,,,,,,,,,,,,,,
119.484,0.0568,0.0,0.0,27.3721,0.9998,-1.6599,-4.6118,0.8223,0.0221,0.0,1.0,0.5377,0.0,0.0,0.0,1.0,0.5436,-0.0,0.0,0.0,0.5543,0.0001,1.0,0.8223,0.9995,0.9995,-0.0529,-0.0529,0.0249,-0.0003,-0.0003,-0.0781,0.0,2.0,1.0,,,,,,,,,,,,,,,,,,-0.0014,0.0014,-0.0011,0.0,0.4457,0.4458,0.0,0.0002,0.1772,0.1772,-0.0,-0.0,0.0,27.3999,0.9998,-0.9849,-2.7363,0.5543,,,,,,,
119.485,,,,,,,,,,,,,,,,,,,,,,,,,,,,,,,,,,,,1.0,,,,,,,,,,,,,,,,,,,,,,,,,,,,,,,,,,,,,,,,,
119.509,0.0568,0.0,0.0,27.3721,0.9998,-1.6599,-4.6118,0.8223,0.0221,0.0,1.0,0.5377,0.0,0.0,0.0,1.0,0.5436,-0.0,0.0,0.0,0.5544,0.0001,0.0,0.8223,0.9995,0.9995,-0.044,-0.044,-0.1373,-0.0041,-0.0041,-0.1974,0.0,2.0,1.0,1.0,2.6382,0.0,0.2463,0.0,101.2622,101.2622,101.2623,-0.0026,-0.1616,0.0055,0.0024,0.0,115.6315,115.6315,115.6295,0.0,-0.0171,0.0019,-0.0011,0.0,0.4457,0.4458,0.0,0.0001,0.1772,0.1772,-0.0,0.0,0.0,27.3999,0.9998,-0.9849,-2.7363,0.5544,,,,,,,
119.534,0.0568,0.0,0.0,27.3721,0.9998,-1.6599,-4.6118,0.8223,0.0221,0.0,1.0,0.5377,0.0,0.0,0.0,1.0,0.5436,-0.0,0.0,0.0,0.5545,0.0001,0.0001,0.8223,0.9995,0.9995,-0.0297,-0.0297,-0.0331,-0.0014,-0.0014,-0.0732,0.0,2.0,1.0,1.0,1.7812,0.0,0.0866,0.0,101.2622,101.2622,101.2626,0.0,-0.1091,0.004,0.0006,0.0,115.6315,115.6315,115.6296,0.0,-0.006,0.0015,-0.0005,0.0,0.4457,0.4457,0.0,0.0,0.1772,0.1772,-0.0,-0.0,0.0,27.3999,0.9998,-0.9849,-2.7363,0.5545,,,,,,,
119.559,0.0568,0.0,0.0,27.3721,0.9998,-1.6599,-4.6118,0.8224,0.0221,0.0,1.0,0.5377,0.0,0.0,0.0,1.0,0.5436,-0.0,0.0,0.0,0.5545,0.0001,0.0002,0.8224,0.9996,0.9996,-0.0192,-0.0191,0.2441,-0.0016,-0.0016,0.0966,0.0,2.0,1.0,,1.1491,0.0,0.0982,0.0,101.2622,101.2622,101.2628,-0.0028,-0.0704,0.0028,-0.0016,0.0,115.6315,115.6315,115.6297,0.0,-0.0068,0.0015,-0.0015,0.0,0.4457,0.4456,0.0,-0.0,0.1772,0.1772,-0.0,-0.0,0.0,27.3999,0.9998,-0.9849,-2.7363,0.5545,,,,,,,
119.56,,,,,,,,,,,,,,,,,,,,,,,,,,,,,,,,,,,,1.0,,,,,,,,,,,,,,,,,,,,,,,,,,,,,,,,,,,,,,,,,
119.584,0.0568,0.0,0.0,27.3721,0.9998,-1.6599,-4.6118,0.8224,0.0221,0.0,1.0,0.5377,0.0,0.0,0.0,1.0,0.5436,-0.0,0.0,0.0,0.5546,0.0001,0.0002,0.8224,0.9996,0.9996,-0.008,-0.008,-0.0063,0.0048,0.0048,0.0779,0.0,2.0,1.0,,0.4824,0.0,0.2908,0.0,101.2622,101.2622,101.263,-0.003,-0.0295,0.0015,-0.0015,0.0,115.6315,115.6315,115.63,0.0,0.0201,0.0007,-0.0007,0.0,0.4457,0.4456,0.0,-0.0001,0.1772,0.1772,-0.0,-0.0,0.0,27.3999,0.9998,-0.9849,-2.7363,0.5546,,,,,,,
119.585,,,,,,,,,,,,,,,,,,,,,,,,,,,,,,,,,,,,1.0,,,,,,,,,,,,,,,,,,,,,,,,,,,,,,,,,,,,,,,,,
119.609,0.0568,0.0,0.0,27.3721,0.9998,-1.6599,-4.6118,0.8224,0.0221,0.0,1.0,0.5377,0.0,0.0,0.0,1.0,0.5436,-0.0,0.0,0.0,0.5546,0.0001,0.0002,0.8224,0.9996,0.9996,0.0032,0.0032,0.0886,0.0019,0.0019,-0.0267,0.0,2.0,1.0,1.0,0.19,0.0,0.1143,0.0,101.2622,101.2622,101.2631,0.0,0.0116,0.0003,-0.0018,0.0,115.6315,115.6315,115.6301,0.0,0.0079,0.0011,-0.0014,0.0,0.4457,0.4455,0.0,-0.0001,0.1772,0.1772,-0.0,-0.0,0.0,27.3999,0.9998,-0.9849,-2.7363,0.5546,,,,,,,
119.634,0.0568,0.0,0.0,27.3721,0.9998,-1.6599,-4.6118,0.8225,0.0221,0.0,1.0,0.5377,0.0,0.0,0.0,1.0,0.5436,-0.0,0.0,0.0,0.5547,0.0001,0.0003,0.8225,0.9997,0.9997,0.0242,0.0242,-0.0636,0.0033,0.0033,-0.0089,0.0,2.0,1.0,1.0,1.4492,0.0,0.1964,0.0,101.2622,101.2622,101.2634,0.0,0.0888,-0.002,-0.0033,0.0,115.6315,115.6315,115.6302,0.0,0.0136,0.0008,-0.0003,0.0,0.4457,0.4454,0.0,-0.0002,0.1772,0.1772,-0.0,-0.0,0.0,27.3999,0.9998,-0.9849,-2.7363,0.5547,,,,,,,
119.659,0.0568,0.0,0.0,27.3721,0.9998,-1.6599,-4.6118,0.8225,0.0221,0.0,1.0,0.5377,0.0,0.0,0.0,1.0,0.5436,-0.0,0.0,0.0,0.5547,0.0001,0.0003,0.8225,0.9997,0.9997,0.0333,0.0333,0.2157,0.0016,0.0016,0.043,0.0,2.0,1.0,1.0,2.0002,0.0,0.0966,0.0,101.2622,101.2622,101.2635,0.0,0.1225,-0.0031,-0.0041,0.0,115.6315,115.6315,115.6304,0.0,0.0067,0.0012,-0.0004,0.0,0.4457,0.4454,0.0,-0.0003,0.1772,0.1772,-0.0,-0.0,0.0,27.3999,0.9998,-0.9849,-2.7363,0.5547,,,,,,,
119.684,0.0568,0.0,0.0,27.3721,0.9998,-1.6599,-4.6118,0.8226,0.0221,0.0,1.0,0.5377,0.0,0.0,0.0,1.0,0.5436,-0.0,0.0,0.0,0.5547,0.0001,0.0003,0.8226,0.9998,0.9998,0.0428,0.0428,0.1588,-0.0007,-0.0007,0.0042,0.0,2.0,1.0,,2.5685,0.0,0.0396,0.0,101.2622,101.2622,101.2635,0.0,0.1573,-0.0041,-0.0037,0.0,115.6315,115.6315,115.6306,0.0,-0.0027,0.0013,0.0003,0.0,0.4457,0.4454,0.0,-0.0002,0.1772,0.1772,-0.0,0.0,0.0,27.3999,0.9998,-0.9849,-2.7363,0.5547,,,,,,,
119.685,,,,,,,,,,,,,,,,,,,,,,,,,,,,,,,,,,,,1.0,,,,,,,,,,,,,,,,,,,,,,,,,,,,,,,,,,,,,,,,,
119.709,0.0568,0.0,0.0,27.3721,0.9998,-1.6599,-4.6118,0.8226,0.0221,0.0,1.0,0.5377,0.0,0.0,0.0,1.0,0.5436,-0.0,0.0,0.0,0.5547,0.0001,0.0004,0.8226,0.9999,0.9998,0.052,0.052,-0.0527,0.0025,0.0025,0.0618,0.0,2.0,1.0,1.0,3.1219,0.0,0.152,0.0,101.2622,101.2622,101.2635,0.0,0.1912,-0.0052,-0.006,0.0,115.6315,115.6315,115.6309,0.0,0.0105,0.0011,-0.0011,0.0,0.4457,0.4454,0.0,-0.0002,0.1772,0.1772,-0.0,0.0,0.0,27.3999,0.9998,-0.9849,-2.7363,0.5547,,,,,,,
119.734,0.0568,0.0,0.0,27.3721,0.9998,-1.6599,-4.6118,0.8227,0.0221,0.0,1.0,0.5377,0.0,0.0,0.0,1.0,0.5436,-0.0,0.0,0.0,0.5547,0.0001,0.0004,0.8227,0.9999,0.9999,0.058,0.058,-0.2414,0.0067,0.0067,-0.0058,0.0,2.0,1.0,1.0,3.4788,0.0,0.4005,0.0,101.2622,101.2622,101.2635,0.0,0.2131,-0.0059,-0.0072,0.0,115.6315,115.6315,115.6313,0.0,0.0277,0.0005,-0.0016,0.0,0.4457,0.4454,0.0,-0.0003,0.1772,0.1772,-0.0,-0.0,0.0,27.3999,0.9998,-0.9849,-2.7363,0.5547,,,,,,,
119.759,0.0568,0.0,0.0,27.3721,0.9998,-1.6599,-4.6118,0.8228,0.0221,0.0,1.0,0.5377,0.0,0.0,0.0,1.0,0.5436,-0.0,0.0,0.0,0.5547,0.0001,0.0003,0.8228,1.0,0.0,0.0562,0.0562,0.1151,0.0046,0.0046,-0.051,0.0,2.0,1.0,,3.3736,0.0,0.2752,0.0,101.2622,101.2622,101.2634,0.0,0.2066,-0.0058,-0.0044,0.0,115.6315,115.6315,115.6316,0.0,0.0191,0.0007,-0.0006,0.0,0.4457,0.4454,0.0,-0.0002,0.1772,0.1772,-0.0,-0.0,0.0,27.3999,0.9998,-0.9849,-2.7363,0.5547,,,,,,,
119.76,,,,,,,,,,,,,,,,,,,,,,,,,,,,,,,,,,,,1.0,,,,,,,,,,,,,,,,,,,,,,,,,,,,,,,,,,,,,,,,,
119.784,0.0568,0.0,0.0,27.3721,0.9998,-1.6599,-4.6118,0.8229,0.0221,0.0,1.0,0.5377,0.0,0.0,0.0,1.0,0.5436,-0.0,0.0,0.0,0.5546,0.0001,0.0003,0.8229,0.0001,0.0001,0.0499,0.0499,-0.0874,0.0056,0.0056,0.0788,0.0,2.0,1.0,1.0,2.996,0.0,0.3387,0.0,101.2622,101.2622,101.2632,0.0,0.1835,-0.0051,-0.0037,0.0,115.6316,115.6315,115.6319,0.0,0.0235,0.0005,-0.0017,0.0,0.4457,0.4455,0.0,-0.0002,0.1772,0.1772,-0.0,-0.0,0.0,27.3999,0.9998,-0.9849,-2.7363,0.5546,,,,,,,
119.809,0.0568,0.0,0.0,27.3721,0.9998,-1.6599,-4.6118,0.823,0.0221,0.0,1.0,0.5377,0.0,0.0,0.0,1.0,0.5436,-0.0,0.0,0.0,0.5546,0.0001,0.0002,0.823,0.0002,0.0002,0.0457,0.0457,0.0528,0.0042,0.0041,-0.0142,0.0,2.0,1.0,,2.7445,0.0,0.249,0.0,101.2622,101.2622,101.2631,0.0,0.1681,-0.0047,-0.0028,0.0,115.6316,115.6315,115.6323,0.0028,0.0173,0.0008,-0.0007,0.0,0.4457,0.4455,0.0,-0.0001,0.1772,0.1772,-0.0,-0.0,0.0,27.3999,0.9998,-0.9849,-2.7363,0.5546,,,,,,,
119.81,,,,,,,,,,,,,,,,,,,,,,,,,,,,,,,,,,,,1.0,,,,,,,,,,,,,,,,,,,,,,,,,,,,,,,,,,,,,,,,,
119.834,0.0568,0.0,0.0,27.3721,0.9998,-1.6599,-4.6118,0.8231,0.0221,0.0,1.0,0.5377,0.0,0.0,0.0,1.0,0.5436,-0.0,0.0,0.0,0.5545,0.0001,0.0002,0.8231,0.0003,0.0003,0.0331,0.0332,-0.1465,0.0058,0.0058,0.0241,0.0,2.0,1.0,1.0,1.9889,0.0,0.3487,0.0,101.2622,101.2622,101.2628,0.0,0.1218,-0.0032,-0.0022,0.0,115.6316,115.6315,115.6328,0.0,0.0242,0.0005,-0.0011,0.0,0.4457,0.4456,0.0,-0.0001,0.1772,0.1772,-0.0,-0.0,0.0,27.3999,0.9998,-0.9849,-2.7363,0.5545,,,,,,,
119.859,0.0568,0.0,0.0,27.3721,0.9998,-1.6599,-4.6118,0.8232,0.0221,0.0,1.0,0.5377,0.0,0.0,0.0,1.0,0.5436,-0.0,0.0,0.0,0.5544,0.0002,0.0001,0.8232,0.0004,0.0004,0.0277,0.0277,0.1035,0.0028,0.0028,-0.0046,0.0,2.0,1.0,,1.6595,0.0,0.1697,0.0,101.2622,101.2622,101.2626,0.0002,0.1016,-0.0026,-0.0015,0.0,115.6316,115.6315,115.6333,0.0,0.0118,0.0009,0.0,0.0,0.4457,0.4457,0.0,0.0001,0.1772,0.1772,-0.0,-0.0,0.0,27.3999,0.9998,-0.9849,-2.7363,0.5544,,,,,,,
119.86,,,,,,,,,,,,,,,,,,,,,,,,,,,,,,,,,,,,1.0,,,,,,,,,,,,,,,,,,,,,,,,,,,,,,,,,,,,,,,,,
119.884,0.0568,0.0,0.0,27.3721,0.9998,-1.6599,-4.6118,0.8233,0.0221,0.0,1.0,0.5377,0.0,0.0,0.0,1.0,0.5436,-0.0,0.0,0.0,0.5544,0.0001,0.0001,0.8233,0.0005,0.0005,0.0142,0.0142,-0.0585,0.0034,0.0034,-0.0611,0.0,2.0,1.0,,0.8527,0.0,0.2028,0.0,101.2622,101.2622,101.2624,0.0008,0.0522,-0.0011,0.0004,0.0,115.6316,115.6315,115.6337,0.0,0.014,0.0007,-0.0003,0.0,0.4457,0.4457,0.0,0.0,0.1772,0.1772,-0.0,-0.0,0.0,27.3999,0.9998,-0.9849,-2.7363,0.5544,,,,,,,
119.885,,,,,,,,,,,,,,,,,,,,,,,,,,,,,,,,,,,,1.0,,,,,,,,,,,,,,,,,,,,,,,,,,,,,,,,,,,,,,,,,
119.909,0.0568,0.0,0.0,27.3721,0.9998,-1.6599,-4.6118,0.8235,0.0221,0.0,1.0,0.5377,0.0,0.0,0.0,1.0,0.5436,-0.0,0.0,0.0,0.5543,0.0001,1.0,0.8235,0.0007,0.0007,-0.002,-0.002,0.0541,0.007,0.0069,0.0462,0.0,2.0,1.0,1.0,0.1193,0.0,0.4171,0.0,101.2622,101.2622,101.2621,0.0026,-0.0073,0.0006,0.0008,0.0,115.6316,115.6315,115.6343,0.0,0.0289,0.0003,-0.0,0.0,0.4457,0.4458,0.0,0.0001,0.1772,0.1772,-0.0,0.0,0.0,27.3999,0.9998,-0.9849,-2.7363,0.5543,,,,,,,
119.934,0.0568,0.0,0.0,27.3721,0.9998,-1.6599,-4.6118,0.8236,0.0221,0.0,1.0,0.5377,0.0,0.0,0.0,1.0,0.5436,-0.0,0.0,0.0,0.5543,0.0001,0.9999,0.8236,0.0008,0.0008,-0.0178,-0.0178,0.087,0.0055,0.0055,-0.027,0.0,2.0,1.0,1.0,1.0655,0.0,0.3326,0.0,101.2622,101.2622,101.262,0.0,-0.0653,0.0024,0.0037,0.0,115.6316,115.6315,115.6349,0.0,0.023,0.0004,-0.0011,0.0,0.4457,0.4458,0.0,0.0002,0.1772,0.1772,-0.0,0.0,0.0,27.3999,0.9998,-0.9849,-2.7363,0.5543,,,,,,,
119.959,0.0568,0.0,0.0,27.3721,0.9998,-1.6599,-4.6118,0.8238,0.0221,0.0,1.0,0.5377,0.0,0.0,0.0,1.0,0.5436,-0.0,0.0,0.0,0.5543,0.0002,0.9999,0.8238,0.0009,0.001,-0.026,-0.026,-0.0372,0.009,0.009,0.0445,0.0,2.0,1.0,1.0,1.5618,0.0,0.5427,0.0,101.2622,101.2622,101.2619,0.0,-0.0957,0.0034,0.0032,0.0,115.6316,115.6315,115.6356,0.0,0.0376,0.0,0.0003,0.0,0.4457,0.4459,0.0,0.0003,0.1772,0.1772,-0.0,-0.0,0.0,27.3999,0.9998,-0.9849,-2.7363,0.5543,,,,,,,
119.984,0.0568,0.0,0.0,27.3721,0.9998,-1.6599,-4.6118,0.8239,0.0221,0.0,1.0,0.5377,0.0,0.0,0.0,1.0,0.5436,-0.0,0.0,0.0,0.5542,0.0001,0.9999,0.8239,0.0011,0.0011,-0.0426,-0.0426,0.1471,0.0045,0.0045,-0.1221,0.0,2.0,1.0,1.0,2.5588,0.0,0.2696,0.0,101.2622,101.2622,101.2617,0.0,-0.1567,0.0052,0.0037,0.0,115.6316,115.6315,115.6361,0.0,0.0187,0.0006,-0.0003,0.0,0.4457,0.4459,0.0,0.0003,0.1772,0.1772,-0.0,-0.0,0.0,27.3999,0.9998,-0.9849,-2.7363,0.5542,,,,,,,
120.009,0.0568,0.0,0.0,27.3721,0.9998,-1.6599,-4.6118,0.8241,0.0221,0.0,1.0,0.5377,0.0,0.0,0.0,1.0,0.5436,-0.0,0.0,0.0,0.5542,0.0001,0.9999,0.8241,0.0013,0.0013,-0.0527,-0.0527,0.1298,0.0061,0.0061,0.0816,0.0,2.0,1.0,,3.163,0.0,0.3649,0.0,101.2622,101.2622,101.2617,0.0,-0.1937,0.0064,0.0052,0.0,115.6316,115.6315,115.6368,0.0,0.0253,0.0003,0.0003,0.0,0.4457,0.4459,0.0,0.0003,0.1772,0.1772,-0.0,-0.0,0.0,27.3999,0.9998,-0.9849,-2.7363,0.5542,,,,,,,
120.01,,,,,,,,,,,,,,,,,,,,,,,,,,,,,,,,,,,,1.0,,,,,,,,,,,,,,,,,,,,,,,,,,,,,,,,,,,,,,,,,
120.034,0.0568,0.0,0.0,27.3721,0.9998,-1.6599,-4.6118,0.8242,0.0221,0.0,1.0,0.5377,0.0,0.0,0.0,1.0,0.5436,-0.0,0.0,0.0,0.5542,0.0001,0.9999,0.8242,0.0014,0.0014,-0.0562,-0.0562,-0.2136,0.006,0.006,-0.0063,0.0,2.0,1.0,1.0,3.3742,0.0,0.3577,0.0,101.2622,101.2622,101.2617,0.0,-0.2067,0.0068,0.0061,0.0,115.6316,115.6315,115.6374,0.0,0.0248,0.0003,0.0004,0.0,0.4457,0.4459,0.0,0.0003,0.1772,0.1772,-0.0,0.0,0.0,27.3999,0.9998,-0.9849,-2.7363,0.5542,,,,,,,
120.059,0.0568,0.0,0.0,27.3721,0.9998,-1.6599,-4.6118,0.8244,0.0221,0.0,1.0,0.5377,0.0,0.0,0.0,1.0,0.5436,-0.0,0.0,0.0,0.5542,0.0001,0.9999,0.8244,0.0016,0.0016,-0.0596,-0.0595,-0.1412,0.0071,0.0071,0.0303,0.0,2.0,1.0,1.0,3.5733,0.0,0.4241,0.0,101.2622,101.2622,101.2617,0.0,-0.2189,0.0071,0.005,0.0,115.6316,115.6315,115.6381,0.0,0.0294,0.0002,0.0003,0.0,0.4457,0.4459,0.0,0.0002,0.1772,0.1772,-0.0,0.0,0.0,27.3999,0.9998,-0.9849,-2.7363,0.5542,,,,,,,
120.084,0.0568,0.0,0.0,27.3721,0.9998,-1.6599,-4.6118,0.8245,0.0221,0.0,1.0,0.5377,0.0,0.0,0.0,1.0,0.5436,-0.0,0.0,0.0,0.5542,0.0001,0.9999,0.8245,0.0018,0.0017,-0.0591,-0.0591,-0.1087,0.0063,0.0063,0.0183,0.0,2.0,1.0,1.0,3.5455,0.0,0.3772,0.0,101.2622,101.2622,101.2618,0.0,-0.2172,0.0072,0.0047,0.0,115.6316,115.6315,115.6388,0.0,0.0261,0.0002,0.001,0.0,0.4457,0.4459,0.0,0.0002,0.1772,0.1772,-0.0,0.0,0.0,27.3999,0.9998,-0.9849,-2.7363,0.5542,,,,,,,
120.109,0.0568,0.0,0.0,27.3721,0.9998,-1.6599,-4.6118,0.8247,0.0221,0.0,1.0,0.5377,0.0,0.0,0.0,1.0,0.5436,-0.0,0.0,0.0,0.5543,0.0001,1.0,0.8247,0.002,0.0019,-0.0527,-0.0527,-0.0686,0.0104,0.0104,-0.0177,0.0,2.0,1.0,,3.1615,0.0,0.6252,0.0,101.2622,101.2622,101.262,-0.001,-0.1936,0.0065,0.0048,0.0,115.6315,115.6315,115.6396,0.0,0.0433,-0.0003,0.0007,0.0,0.4457,0.4458,0.0,0.0002,0.1772,0.1772,-0.0,0.0,0.0,27.3999,0.9998,-0.9849,-2.7363,0.5543,,,,,,,
120.11,,,,,,,,,,,,,,,,,,,,,,,,,,,,,,,,,,,,1.0,,,,,,,,,,,,,,,,,,,,,,,,,,,,,,,,,,,,,,,,,
120.134,0.0568,0.0,0.0,27.3721,0.9998,-1.6599,-4.6118,0.8249,0.0221,0.0,1.0,0.5377,0.0,0.0,0.0,1.0,0.5436,-0.0,0.0,0.0,0.5543,0.0001,1.0,0.8249,0.0022,0.0021,-0.0503,-0.0503,0.0244,0.0065,0.0065,-0.0857,0.0,2.0,1.0,,3.0177,0.0,0.3902,0.0,101.2622,101.2622,101.2622,-0.0026,-0.1848,0.0062,0.0028,0.0,115.6315,115.6315,115.6404,0.0,0.027,0.0001,0.0024,0.0,0.4457,0.4458,0.0,0.0001,0.1772,0.1772,-0.0,0.0,0.0,27.3999,0.9998,-0.9849,-2.7363,0.5543,,,,,,,
120.135,,,,,,,,,,,,,,,,,,,,,,,,,,,,,,,,,,,,1.0,,,,,,,,,,,,,,,,,,,,,,,,,,,,,,,,,,,,,,,,,
120.159,0.0568,0.0,0.0,27.3721,0.9998,-1.6599,-4.6118,0.8251,0.0221,0.0,1.0,0.5377,0.0,0.0,0.0,1.0,0.5436,-0.0,0.0,0.0,0.5544,0.0001,0.0,0.8251,0.0024,0.0023,-0.0406,-0.0406,0.0242,0.0054,0.0054,0.0773,0.0,2.0,1.0,,2.4388,0.0,0.3267,0.0,101.2622,101.2622,101.2624,-0.0017,-0.1494,0.0051,0.0026,0.0,115.6315,115.6315,115.6411,0.0,0.0226,0.0002,0.001,0.0,0.4457,0.4457,0.0,0.0001,0.1772,0.1773,0.0,0.0001,0.0,27.3999,0.9998,-0.9849,-2.7363,0.5544,,,,,,,
120.16,,,,,,,,,,,,,,,,,,,,,,,,,,,,,,,,,,,,1.0,,,,,,,,,,,,,,,,,,,,,,,,,,,,,,,,,,,,,,,,,
120.184,0.0568,0.0,0.0,27.3721,0.9998,-1.6599,-4.6118,0.8253,0.0221,0.0,1.0,0.5377,0.0,0.0,0.0,1.0,0.5436,-0.0,0.0,0.0,0.5545,0.0001,0.0001,0.8253,0.0025,0.0025,-0.028,-0.028,0.0575,0.0054,0.0054,0.0708,0.0,2.0,1.0,,1.6776,0.0,0.3243,0.0,101.2622,101.2622,101.2626,0.0,-0.1028,0.0038,0.0012,0.0,115.6315,115.6315,115.6419,0.0,0.0225,0.0002,0.0015,0.0,0.4457,0.4457,0.0,-0.0,0.1772,0.1773,0.0,0.0,0.0,27.3999,0.9998,-0.9849,-2.7363,0.5545,,,,,,,
120.185,,,,,,,,,,,,,,,,,,,,,,,,,,,,,,,,,,,,1.0,,,,,,,,,,,,,,,,,,,,,,,,,,,,,,,,,,,,,,,,,
120.209,0.0568,0.0,0.0,27.3721,0.9998,-1.6599,-4.6118,0.8255,0.0221,0.0,1.0,0.5377,0.0,0.0,0.0,1.0,0.5436,-0.0,0.0,0.0,0.5545,0.0001,0.0002,0.8255,0.0027,0.0027,-0.014,-0.014,0.3095,0.0094,0.0094,0.0481,0.0,2.0,1.0,,0.8429,0.0,0.5647,0.0,101.2622,101.2622,101.2629,0.0,-0.0516,0.0022,-0.0002,0.0,115.6315,115.6315,115.6427,0.0,0.0391,-0.0003,0.0015,0.0,0.4457,0.4456,0.0,-0.0001,0.1772,0.1773,0.0,0.0,0.0,27.3999,0.9998,-0.9849,-2.7363,0.5545,,,,,,,
120.21,,,,,,,,,,,,,,,,,,,,,,,,,,,,,,,,,,,,1.0,,,,,,,,,,,,,,,,,,,,,,,,,,,,,,,,,,,,,,,,,
120.234,0.0568,0.0,0.0,27.3721,0.9998,-1.6599,-4.6118,0.8257,0.022,0.0,1.0,0.5377,0.0,0.0,0.0,1.0,0.5436,-0.0,0.0,0.0,0.5546,0.0001,0.0002,0.8257,0.0029,0.0029,-0.0018,-0.0018,-0.1401,0.005,0.005,0.1177,0.0,2.0,1.0,,0.106,0.0,0.3015,0.0,101.2622,101.2622,101.2631,-0.0029,-0.0065,0.0008,-0.002,0.0,115.6315,115.6315,115.6434,0.0,0.0209,0.0002,-0.0004,0.0,0.4457,0.4455,0.0,-0.0001,0.1772,0.1773,0.0,0.0001,0.0,27.3999,0.9998,-0.9849,-2.7363,0.5546,,,,,,,
120.235,,,,,,,,,,,,,,,,,,,,,,,,,,,,,,,,,,,,1.0,,,,,,,,,,,,,,,,,,,,,,,,,,,,,,,,,,,,,,,,,
120.259,0.0568,0.0,0.0,27.3721,0.9998,-1.6599,-4.6118,0.8258,0.022,0.0,1.0,0.5377,0.0,0.0,0.0,1.0,0.5436,-0.0,0.0,0.0,0.5546,0.0001,0.0003,0.8258,0.0031,0.0031,0.0142,0.0142,-0.1563,0.0043,0.0043,0.0308,0.0,2.0,1.0,1.0,0.8491,0.0,0.2582,0.0,101.2622,101.2622,101.2633,0.0,0.052,-0.0009,-0.0022,0.0,115.6315,115.6315,115.6442,0.0,0.0179,0.0003,0.0018,0.0,0.4457,0.4455,0.0,-0.0002,0.1772,0.1773,0.0,0.0001,0.0,27.3999,0.9998,-0.9849,-2.7363,0.5546,,,,,,,
120.284,0.0568,0.0,0.0,27.3721,0.9998,-1.6599,-4.6118,0.8261,0.022,0.0,1.0,0.5377,0.0,0.0,0.0,1.0,0.5436,-0.0,0.0,0.0,0.5547,0.0001,0.0003,0.8261,0.0033,0.0033,0.0295,0.0296,0.144,0.009,0.009,-0.0669,0.0,2.0,1.0,,1.7728,0.0,0.5379,0.0,101.2622,101.2622,101.2634,0.0,0.1086,-0.0027,-0.0046,0.0,115.6315,115.6315,115.6451,0.0,0.0373,-0.0003,0.0006,0.0,0.4457,0.4455,0.0,-0.0002,0.1772,0.1772,0.0,0.0,0.0,27.3999,0.9998,-0.9849,-2.7363,0.5547,,,,,,,
120.285,,,,,,,,,,,,,,,,,,,,,,,,,,,,,,,,,,,,1.0,,,,,,,,,,,,,,,,,,,,,,,,,,,,,,,,,,,,,,,,,
120.309,0.0568,0.0,0.0,27.3721,0.9998,-1.6599,-4.6118,0.8262,0.022,0.0,1.0,0.5377,0.0,0.0,0.0,1.0,0.5436,-0.0,0.0,0.0,0.5547,0.0001,0.0004,0.8262,0.0035,0.0035,0.045,0.045,0.1279,0.007,0.007,-0.0319,0.0,2.0,1.0,,2.6985,0.0,0.4213,0.0,101.2622,101.2622,101.2636,0.0,0.1653,-0.0044,-0.0052,0.0,115.6315,115.6315,115.6458,0.0,0.0292,-0.0002,0.0016,0.0,0.4457,0.4454,0.0,-0.0002,0.1772,0.1773,0.0,0.0,0.0,27.3999,0.9998,-0.9849,-2.7363,0.5547,,,,,,,
120.31,,,,,,,,,,,,,,,,,,,,,,,,,,,,,,,,,,,,1.0,,,,,,,,,,,,,,,,,,,,,,,,,,,,,,,,,,,,,,,,,
120.334,0.0568,0.0,0.0,27.3721,0.9998,-1.6599,-4.6118,0.8264,0.022,0.0,1.0,0.5377,0.0,0.0,0.0,1.0,0.5436,-0.0,0.0,0.0,0.5547,0.0001,0.0004,0.8264,0.0037,0.0036,0.0532,0.0532,0.2169,0.0038,0.0038,0.0154,0.0,2.0,1.0,1.0,3.1905,0.0,0.2285,0.0,101.2622,101.2622,101.2636,0.0,0.1954,-0.0054,-0.0045,0.0,115.6315,115.6315,115.6465,0.0,0.0158,0.0002,0.0009,0.0,0.4457,0.4454,0.0,-0.0003,0.1772,0.1773,0.0,0.0001,0.0,27.3999,0.9998,-0.9849,-2.7363,0.5547,,,,,,,
120.359,0.0568,0.0,0.0,27.3721,0.9998,-1.6599,-4.6118,0.8266,0.022,0.0,1.0,0.5377,0.0,0.0,0.0,1.0,0.5436,-0.0,0.0,0.0,0.5547,0.0001,0.0004,0.8266,0.0038,0.0038,0.0573,0.0573,0.07,0.0049,0.0049,0.1537,0.0,2.0,1.0,1.0,3.4406,0.0,0.2926,0.0,101.2622,101.2622,101.2636,0.0,0.2107,-0.0059,-0.0046,0.0,115.6315,115.6314,115.6472,0.0,0.0203,0.0,0.0017,0.0,0.4457,0.4454,0.0,-0.0003,0.1772,0.1773,0.0,0.0001,0.0,27.3999,0.9998,-0.9849,-2.7363,0.5547,,,,,,,
120.384,0.0568,0.0,0.0,27.3721,0.9998,-1.6599,-4.6118,0.8268,0.022,0.0,1.0,0.5377,0.0,0.0,0.0,1.0,0.5436,-0.0,0.0,0.0,0.5547,0.0001,0.0004,0.8268,0.004,0.004,0.0611,0.0611,-0.0837,0.0086,0.0086,-0.0432,0.0,2.0,1.0,,3.6639,0.0,0.5147,0.0,101.2622,101.2622,101.2635,0.0019,0.2244,-0.0062,-0.0076,0.0,115.6314,115.6314,115.648,0.0,0.0357,-0.0004,0.0022,0.0,0.4457,0.4454,0.0,-0.0003,0.1772,0.1773,0.0,0.0,0.0,27.3999,0.9998,-0.9849,-2.7363,0.5547,,,,,,,
120.385,,,,,,,,,,,,,,,,,,,,,,,,,,,,,,,,,,,,1.0,,,,,,,,,,,,,,,,,,,,,,,,,,,,,,,,,,,,,,,,,
120.409,0.0568,0.0,0.0,27.3721,0.9998,-1.6599,-4.6118,0.8269,0.022,0.0,1.0,0.5377,0.0,0.0,0.0,1.0,0.5436,-0.0,0.0,0.0,0.5546,0.0001,0.0003,0.8269,0.0042,0.0042,0.0548,0.0548,-0.0001,0.0068,0.0068,-0.0426,0.0,2.0,1.0,,3.2877,0.0,0.4058,0.0,101.2622,101.2622,101.2633,0.0024,0.2014,-0.0056,-0.0049,0.0,115.6314,115.6314,115.6487,0.0,0.0281,-0.0003,0.0028,0.0,0.4457,0.4455,0.0,-0.0002,0.1772,0.1773,0.0,0.0,0.0,27.3999,0.9998,-0.9849,-2.7363,0.5546,,,,,,,
120.41,,,,,,,,,,,,,,,,,,,,,,,,,,,,,,,,,,,,1.0,,,,,,,,,,,,,,,,,,,,,,,,,,,,,,,,,,,,,,,,,
120.434,0.0568,0.0,0.0,27.3721,0.9998,-1.6599,-4.6118,0.8271,0.022,0.0,1.0,0.5377,0.0,0.0,0.0,1.0,0.5436,-0.0,0.0,0.0,0.5546,0.0001,0.0003,0.8271,0.0044,0.0043,0.0517,0.0517,-0.0508,0.0075,0.0075,0.0461,0.0,2.0,1.0,,3.0993,0.0,0.4487,0.0,101.2622,101.2622,101.2632,0.0,0.1898,-0.0053,-0.0033,0.0,115.6314,115.6314,115.6495,0.0,0.0311,-0.0003,0.0016,0.0,0.4457,0.4455,-0.0,-0.0002,0.1772,0.1772,0.0,0.0,0.0,27.3999,0.9998,-0.9849,-2.7363,0.5546,,,,,,,
120.435,,,,,,,,,,,,,,,,,,,,,,,,,,,,,,,,,,,,1.0,,,,,,,,,,,,,,,,,,,,,,,,,,,,,,,,,,,,,,,,,
120.459,0.0568,0.0,0.0,27.3721,0.9998,-1.6599,-4.6118,0.8273,0.022,0.0,1.0,0.5377,0.0,0.0,0.0,1.0,0.5436,-0.0,0.0,0.0,0.5545,0.0001,0.0002,0.8273,0.0045,0.0045,0.04,0.04,0.0587,0.0085,0.0086,-0.0546,0.0,2.0,1.0,1.0,2.399,0.0,0.5121,0.0,101.2622,101.2622,101.2629,0.0008,0.1469,-0.0041,-0.0025,0.0,115.6314,115.6314,115.6501,0.0,0.0355,-0.0005,0.0013,0.0,0.4457,0.4456,-0.0,-0.0001,0.1772,0.1772,0.0,0.0,0.0,27.3999,0.9998,-0.9849,-2.7363,0.5545,,,,,,,
120.484,0.0568,0.0,0.0,27.3721,0.9998,-1.6599,-4.6118,0.8274,0.022,0.0,1.0,0.5377,0.0,0.0,0.0,1.0,0.5436,-0.0,0.0,0.0,0.5544,0.0001,0.0001,0.8274,0.0047,0.0047,0.0217,0.0217,0.0736,0.0075,0.0076,0.0246,0.0,2.0,1.0,1.0,1.301,0.0,0.4527,0.0,101.2622,101.2622,101.2626,0.0,0.0797,-0.0021,-0.0004,0.0,115.6314,115.6314,115.6508,0.0,0.0314,-0.0004,0.0021,0.0,0.4457,0.4456,-0.0,-0.0,0.1772,0.1773,0.0,0.0,0.0,27.3999,0.9998,-0.9849,-2.7363,0.5544,,,,,,,
120.51,0.0568,0.0,0.0,27.3721,0.9998,-1.6599,-4.6118,0.8276,0.0219,0.0,1.0,0.5377,0.0,0.0,0.0,1.0,0.5436,-0.0,0.0,0.0,0.5544,0.0001,0.0,0.8276,0.0049,0.0048,0.011,0.011,0.0045,0.0051,0.0051,0.0615,0.0,2.0,1.0,1.0,0.6584,0.0,0.3034,0.0,101.2622,101.2622,101.2624,0.0033,0.0403,-0.0009,0.001,0.0,115.6314,115.6314,115.6515,0.0,0.021,-0.0,0.0008,0.0,0.4457,0.4457,-0.0,0.0001,0.1772,0.1773,0.0,0.0,0.0,27.3999,0.9998,-0.9849,-2.7363,0.5544,,,,,,,
120.534,0.0568,0.0,0.0,27.3721,0.9998,-1.6599,-4.6118,0.8278,0.0219,0.0,1.0,0.5377,0.0,0.0,0.0,1.0,0.5436,-0.0,0.0,0.0,0.5543,0.0001,1.0,0.8278,0.005,0.005,-0.0005,-0.0005,0.0935,0.008,0.0081,0.0692,0.0,2.0,1.0,,0.0282,0.0,0.4822,0.0,101.2622,101.2622,101.2622,0.0048,-0.0017,0.0006,0.0002,0.0,115.6314,115.6314,115.6522,0.0,0.0334,-0.0006,0.0005,0.0,0.4457,0.4458,-0.0,0.0001,0.1772,0.1773,0.0,0.0,0.0,27.3999,0.9998,-0.9849,-2.7363,0.5543,,,,,,,
120.535,,,,,,,,,,,,,,,,,,,,,,,,,,,,,,,,,,,,1.0,,,,,,,,,,,,,,,,,,,,,,,,,,,,,,,,,,,,,,,,,
120.559,,,,,,,,,,,,,,,,,,,,,,,,,,,,,,,,,,,,,1.2144,0.0,0.3509,0.0,101.2622,101.2622,101.2619,0.0,-0.0744,0.0026,0.004,0.0,115.6314,115.6314,115.6528,0.0,,,,,,,,,,,,,,,,,,,,,,,,,
120.56,0.0568,0.0,0.0,27.3721,0.9998,-1.6599,-4.6118,0.8279,0.0219,0.0,1.0,0.5377,0.0,0.0,0.0,1.0,0.5436,-0.0,0.0,0.0,0.5543,0.0001,0.9999,0.8279,0.0052,0.0052,-0.0202,-0.0202,-0.0317,0.0058,0.0059,-0.0312,0.0,2.0,1.0,1.0,,,,,,,,,,,,,,,,,0.0243,-0.0003,0.0004,0.0,0.4457,0.4458,-0.0,0.0002,0.1772,0.1773,0.0,0.0,0.0,27.3999,0.9998,-0.9849,-2.7363,0.5543,,,,,,,
120.584,0.0569,0.0,0.0,27.3721,0.9998,-1.6599,-4.6118,0.8281,0.0219,0.0,1.0,0.5377,0.0,0.0,0.0,1.0,0.5436,-0.0,0.0,0.0,0.5542,0.0001,0.9999,0.8281,0.0053,0.0053,-0.0363,-0.0363,-0.0118,0.009,0.0091,0.0309,0.0,2.0,1.0,1.0,2.1794,0.0,0.5413,0.0,101.2622,101.2622,101.2618,0.0,-0.1335,0.0044,0.0046,0.0,115.6314,115.6314,115.6535,0.0,0.0375,-0.0007,0.0004,0.0,0.4457,0.4459,-0.0,0.0002,0.1772,0.1773,0.0,0.0,0.0,27.3999,0.9998,-0.9849,-2.7363,0.5542,,,,,,,
120.609,0.0569,0.0,0.0,27.3721,0.9998,-1.6599,-4.6118,0.8282,0.0219,0.0,1.0,0.5377,0.0,0.0,0.0,1.0,0.5436,-0.0,0.0,0.0,0.5542,0.0001,0.9999,0.8282,0.0054,0.0055,-0.0472,-0.0472,0.0128,0.0086,0.0086,0.0161,0.0,2.0,1.0,,2.8294,0.0,0.5159,0.0,101.2622,101.2622,101.2617,0.0,-0.1733,0.0057,0.0053,0.0,115.6314,115.6313,115.654,0.0,0.0357,-0.0007,0.0002,0.0,0.4457,0.4459,-0.0,0.0003,0.1772,0.1772,0.0,-0.0,0.0,27.3999,0.9998,-0.9849,-2.7363,0.5542,,,,,,,
120.61,,,,,,,,,,,,,,,,,,,,,,,,,,,,,,,,,,,,1.0,,,,,,,,,,,,,,,,,,,,,,,,,,,,,,,,,,,,,,,,,
120.634,0.0569,0.0,0.0,27.3721,0.9998,-1.6599,-4.6118,0.8283,0.0219,0.0,1.0,0.5377,0.0,0.0,0.0,1.0,0.5436,-0.0,0.0,0.0,0.5542,0.0001,0.9998,0.8283,0.0055,0.0056,-0.0564,-0.0564,-0.1178,0.0068,0.0068,0.0666,0.0,2.0,1.0,,3.3813,0.0,0.4062,0.0,101.2622,101.2622,101.2617,0.0,-0.2071,0.0068,0.0059,0.0,115.6314,115.6313,115.6545,0.0,0.0281,-0.0005,0.001,0.0,0.4457,0.4459,-0.0,0.0003,0.1772,0.1772,0.0,-0.0,0.0,27.3999,0.9998,-0.9849,-2.7363,0.5542,,,,,,,
120.635,,,,,,,,,,,,,,,,,,,,,,,,,,,,,,,,,,,,1.0,,,,,,,,,,,,,,,,,,,,,,,,,,,,,,,,,,,,,,,,,
120.659,0.0569,0.0,0.0,27.3721,0.9998,-1.6599,-4.6118,0.8284,0.0219,0.0,1.0,0.5377,0.0,0.0,0.0,1.0,0.5436,-0.0,0.0,0.0,0.5542,0.0001,0.9999,0.8284,0.0057,0.0057,-0.0603,-0.0603,0.1117,0.0022,0.0022,-0.0412,0.0,2.0,1.0,,3.6167,0.0,0.1301,0.0,101.2622,101.2622,101.2617,0.0,-0.2215,0.0072,0.0048,0.0,115.6314,115.6313,115.655,0.0,0.009,0.0001,0.0002,0.0,0.4457,0.4459,-0.0,0.0003,0.1772,0.1772,0.0,-0.0,0.0,27.3999,0.9998,-0.9849,-2.7363,0.5542,,,,,,,
120.66,,,,,,,,,,,,,,,,,,,,,,,,,,,,,,,,,,,,1.0,,,,,,,,,,,,,,,,,,,,,,,,,,,,,,,,,,,,,,,,,
120.684,0.0569,0.0,0.0,27.3721,0.9998,-1.6599,-4.6118,0.8285,0.0219,0.0,1.0,0.5377,0.0,0.0,0.0,1.0,0.5436,-0.0,0.0,0.0,0.5542,0.0001,0.9999,0.8285,0.0058,0.0058,-0.0607,-0.0607,0.1029,0.0003,0.0004,0.0506,0.0,2.0,1.0,,3.6401,0.0,0.0195,0.0,101.2622,101.2622,101.2618,-0.0028,-0.223,0.0073,0.0035,0.0,115.6314,115.6313,115.6554,0.0,0.0014,0.0003,0.0008,0.0,0.4457,0.4459,-0.0,0.0002,0.1772,0.1772,0.0,-0.0,0.0,27.3999,0.9998,-0.9849,-2.7363,0.5542,,,,,,,
120.685,,,,,,,,,,,,,,,,,,,,,,,,,,,,,,,,,,,,1.0,,,,,,,,,,,,,,,,,,,,,,,,,,,,,,,,,,,,,,,,,
120.709,0.0569,0.0,0.0,27.3721,0.9998,-1.6599,-4.6118,0.8287,0.0219,0.0,1.0,0.5377,0.0,0.0,0.0,1.0,0.5436,-0.0,0.0,0.0,0.5543,0.0001,0.9999,0.8287,0.0059,0.0059,-0.0551,-0.0551,-0.088,0.0032,0.0032,0.0759,0.0,2.0,1.0,1.0,3.3071,0.0,0.1927,0.0,101.2622,101.2622,101.262,-0.0061,-0.2026,0.0065,0.0037,0.0,115.6314,115.6313,115.6559,0.0,0.0133,-0.0,0.0012,0.0,0.4457,0.4458,-0.0,0.0002,0.1772,0.1772,0.0,-0.0,0.0,27.3999,0.9998,-0.9849,-2.7363,0.5543,,,,,,,
120.734,0.0569,0.0,0.0,27.3721,0.9998,-1.6599,-4.6118,0.8288,0.0219,0.0,1.0,0.5377,0.0,0.0,0.0,1.0,0.5436,-0.0,0.0,0.0,0.5544,0.0001,0.0,0.8288,0.006,0.006,-0.0458,-0.0458,-0.0662,0.0029,0.0029,-0.0243,0.0,2.0,1.0,1.0,2.7492,0.0,0.1747,0.0,101.2622,101.2622,101.2623,0.0,-0.1684,0.0058,0.0032,0.0,115.6314,115.6314,115.6563,0.0,0.0121,0.0,0.0011,0.0,0.4457,0.4458,-0.0,0.0001,0.1772,0.1772,0.0,-0.0,0.0,27.3999,0.9998,-0.9849,-2.7363,0.5544,,,,,,,
120.759,0.0569,0.0,0.0,27.3721,0.9998,-1.6599,-4.6118,0.8288,0.0219,0.0,1.0,0.5377,0.0,0.0,0.0,1.0,0.5436,-0.0,0.0,0.0,0.5545,0.0002,0.0001,0.8288,0.006,0.0061,-0.03,-0.03,-0.008,0.004,0.004,-0.0002,0.0,2.0,1.0,1.0,1.7987,0.0,0.2381,0.0,101.2622,101.2622,101.2626,0.0,-0.1102,0.004,0.0022,0.0,115.6314,115.6314,115.6567,0.0,0.0165,-0.0003,0.0004,0.0,0.4457,0.4457,-0.0,0.0001,0.1772,0.1772,0.0,-0.0,0.0,27.3999,0.9998,-0.9849,-2.7363,0.5545,,,,,,,
120.784,0.0569,0.0,0.0,27.3721,0.9998,-1.6599,-4.6118,0.8289,0.0219,0.0,1.0,0.5377,0.0,0.0,0.0,1.0,0.5436,-0.0,0.0,0.0,0.5545,0.0001,0.0002,0.8289,0.0061,0.0062,-0.0186,-0.0186,0.115,0.0033,0.0033,0.087,0.0,2.0,1.0,1.0,1.1162,0.0,0.198,0.0,101.2622,101.2622,101.2629,0.0,-0.0684,0.0027,-0.0004,0.0,115.6314,115.6314,115.657,0.0,0.0137,-0.0001,-0.0004,0.0,0.4457,0.4456,-0.0,-0.0,0.1772,0.1772,0.0,-0.0001,0.0,27.3999,0.9998,-0.9849,-2.7363,0.5545,,,,,,,
120.809,0.0569,0.0,0.0,27.3721,0.9998,-1.6599,-4.6118,0.829,0.0219,0.0,1.0,0.5377,0.0,0.0,0.0,1.0,0.5436,-0.0,0.0,0.0,0.5546,0.0001,0.0002,0.829,0.0062,0.0062,-0.0032,-0.0032,0.0895,0.0017,0.0017,0.0741,0.0,2.0,1.0,1.0,0.1921,0.0,0.1008,0.0,101.2622,101.2622,101.2631,0.0,-0.0118,0.0011,-0.0022,0.0,115.6314,115.6314,115.6573,0.0,0.007,0.0,0.0006,0.0,0.4456,0.4456,-0.0,-0.0001,0.1772,0.1772,0.0,-0.0,0.0,27.3999,0.9998,-0.9849,-2.7363,0.5546,,,,,,,
120.834,0.0569,0.0,0.0,27.3721,0.9998,-1.6599,-4.6118,0.829,0.022,0.0,1.0,0.5377,0.0,0.0,0.0,1.0,0.5436,-0.0,0.0,0.0,0.5546,0.0001,0.0003,0.829,0.0062,0.0063,0.0074,0.0074,-0.0847,-0.0029,-0.0029,0.0114,0.0,2.0,1.0,1.0,0.4465,0.0,0.177,0.0,101.2622,101.2622,101.2632,0.0,0.0274,-0.0003,-0.0015,0.0,115.6314,115.6314,115.6574,0.0,-0.0123,0.0006,0.0,0.0,0.4456,0.4455,-0.0,-0.0001,0.1772,0.1772,0.0,-0.0001,0.0,27.3999,0.9998,-0.9849,-2.7363,0.5546,,,,,,,
120.859,0.0569,0.0,0.0,27.3721,0.9998,-1.6599,-4.6118,0.8291,0.022,0.0,1.0,0.5377,0.0,0.0,0.0,1.0,0.5436,-0.0,0.0,0.0,0.5547,0.0001,0.0003,0.8291,0.0062,0.0063,0.0219,0.0219,0.0723,-0.0003,-0.0003,-0.0637,0.0,2.0,1.0,,1.3132,0.0,0.0197,0.0,101.2622,101.2622,101.2634,0.0,0.0804,-0.0019,-0.0042,0.0,115.6314,115.6314,115.6577,0.0,-0.0014,0.0003,0.0008,0.0,0.4457,0.4455,-0.0,-0.0002,0.1772,0.1772,0.0,-0.0001,0.0,27.3999,0.9998,-0.9849,-2.7363,0.5547,,,,,,,
120.86,,,,,,,,,,,,,,,,,,,,,,,,,,,,,,,,,,,,1.0,,,,,,,,,,,,,,,,,,,,,,,,,,,,,,,,,,,,,,,,,
120.884,0.0569,0.0,0.0,27.3721,0.9998,-1.6599,-4.6118,0.8291,0.022,0.0,1.0,0.5377,0.0,0.0,0.0,1.0,0.5436,-0.0,0.0,0.0,0.5547,0.0001,0.0004,0.8291,0.0063,0.0063,0.0379,0.0379,-0.0351,-0.008,-0.008,0.0038,0.0,2.0,1.0,,2.2713,0.0,0.4809,0.0,101.2622,101.2622,101.2636,0.0,0.1391,-0.0036,-0.0041,0.0,115.6314,115.6314,115.6577,0.0,-0.0333,0.0011,0.0012,0.0,0.4456,0.4454,-0.0,-0.0002,0.1772,0.1772,0.0,-0.0,0.0,27.3999,0.9998,-0.9849,-2.7363,0.5547,,,,,,,
120.885,,,,,,,,,,,,,,,,,,,,,,,,,,,,,,,,,,,,1.0,,,,,,,,,,,,,,,,,,,,,,,,,,,,,,,,,,,,,,,,,
120.909,,,,,,,,,,,,,,,,,,,,,,,,,,,,,,,,,,,,,2.5714,0.0,0.0384,0.0,101.2622,101.2622,101.2636,0.0,0.1575,-0.0043,-0.0051,0.0,115.6315,115.6314,115.658,0.0,0.0027,-0.0,0.0,0.0,0.4457,0.4454,-0.0,-0.0003,0.1772,0.1772,0.0,-0.0001,0.0,27.3999,0.9998,-0.9849,-2.7363,0.5547,,,,,,,
120.91,0.0569,0.0,0.0,27.3721,0.9998,-1.6599,-4.6118,0.8292,0.022,0.0,1.0,0.5377,0.0,0.0,0.0,1.0,0.5436,-0.0,0.0,0.0,0.5547,0.0001,0.0004,0.8292,0.0063,0.0064,0.0429,0.0429,0.0008,0.0006,0.0006,-0.0367,0.0,2.0,1.0,1.0,,,,,,,,,,,,,,,,,,,,,,,,,,,,,,,,,,,,,,,,,
120.934,0.0569,0.0,0.0,27.3721,0.9998,-1.6599,-4.6118,0.8292,0.022,0.0,1.0,0.5377,0.0,0.0,0.0,1.0,0.5436,-0.0,0.0,0.0,0.5547,0.0001,0.0004,0.8292,0.0063,0.0064,0.0536,0.0536,0.2458,0.004,0.004,0.0797,0.0,2.0,1.0,1.0,3.2151,0.0,0.2382,0.0,101.2622,101.2622,101.2636,0.0,0.1969,-0.0054,-0.0074,0.0,115.6315,115.6315,115.6582,0.0,0.0165,-0.0004,0.0002,0.0,0.4457,0.4454,-0.0,-0.0002,0.1772,0.1771,-0.0,-0.0001,0.0,27.3999,0.9998,-0.9849,-2.7363,0.5547,,,,,,,
120.959,,,,,,,,,,,,,,,,,,,,,,,,,,,,,,,,,,,,,3.3957,0.0,0.2536,0.0,101.2622,101.2622,101.2636,0.0,0.208,-0.0058,-0.0051,0.0,115.6315,115.6315,115.6584,0.0,0.0176,-0.0005,-0.0,0.0,0.4457,0.4454,-0.0,-0.0003,0.1772,0.1771,-0.0,-0.0001,0.0,27.3999,0.9998,-0.9849,-2.7363,0.5547,,,,,,,
120.96,0.0569,0.0,0.0,27.3721,0.9998,-1.6599,-4.6118,0.8293,0.022,0.0,1.0,0.5377,0.0,0.0,0.0,1.0,0.5436,-0.0,0.0,0.0,0.5547,0.0001,0.0004,0.8293,0.0064,0.0065,0.0566,0.0566,0.036,0.0042,0.0042,-0.031,0.0,2.0,1.0,1.0,,,,,,,,,,,,,,,,,,,,,,,,,,,,,,,,,,,,,,,,,
120.984,0.0569,0.0,0.0,27.3721,0.9998,-1.6599,-4.6118,0.8293,0.0221,0.0,1.0,0.5377,0.0,0.0,0.0,1.0,0.5436,-0.0,0.0,0.0,0.5547,0.0001,0.0003,0.8293,0.0064,0.0065,0.0588,0.0588,-0.0384,0.004,0.004,-0.0138,0.0,2.0,1.0,,3.5304,0.0,0.2386,0.0,101.2622,101.2622,101.2635,0.0,0.2162,-0.0061,-0.008,0.0,115.6315,115.6315,115.6585,0.0,0.0165,-0.0003,-0.0002,0.0,0.4457,0.4454,-0.0,-0.0002,0.1772,0.1771,-0.0,-0.0001,0.0,27.3999,0.9998,-0.9849,-2.7363,0.5547,,,,,,,
120.985,,,,,,,,,,,,,,,,,,,,,,,,,,,,,,,,,,,,1.0,,,,,,,,,,,,,,,,,,,,,,,,,,,,,,,,,,,,,,,,,
121.009,,,,,,,,,,,,,,,,,,,,,,,,,,,,,,,,,,,,,3.4469,0.0,0.2236,0.0,101.2622,101.2622,101.2634,0.0,0.2111,-0.006,-0.0059,0.0,115.6315,115.6315,115.6586,0.0,,,,,,,,,,,,,,,,,,,,,,,,,
121.01,0.0569,0.0,0.0,27.3721,0.9998,-1.6599,-4.6118,0.8293,0.0221,0.0,1.0,0.5377,0.0,0.0,0.0,1.0,0.5436,-0.0,0.0,0.0,0.5547,0.0001,0.0003,0.8293,0.0064,0.0065,0.0574,0.0574,-0.1534,0.0037,0.0037,0.0453,0.0,2.0,1.0,1.0,,,,,,,,,,,,,,,,,0.0155,-0.0003,-0.0004,0.0,0.4457,0.4455,-0.0,-0.0002,0.1772,0.1771,-0.0,-0.0001,0.0,27.3999,0.9998,-0.9849,-2.7363,0.5547,,,,,,,
121.034,0.0569,0.0,0.0,27.3721,0.9998,-1.6599,-4.6118,0.8293,0.0221,0.0,1.0,0.5377,0.0,0.0,0.0,1.0,0.5436,-0.0,0.0,0.0,0.5546,0.0001,0.0002,0.8293,0.0064,0.0065,0.0458,0.0458,-0.0865,0.0034,0.0034,-0.0821,0.0,2.0,1.0,,2.7471,0.0,0.2043,0.0,101.2622,101.2622,101.263,0.0,0.1683,-0.0047,-0.0035,0.0,115.6315,115.6315,115.6587,0.0,0.0142,-0.0003,0.0002,0.0,0.4457,0.4456,-0.0,-0.0001,0.1772,0.1771,-0.0,-0.0001,0.0,27.3999,0.9998,-0.9849,-2.7363,0.5546,,,,,,,
121.035,,,,,,,,,,,,,,,,,,,,,,,,,,,,,,,,,,,,1.0,,,,,,,,,,,,,,,,,,,,,,,,,,,,,,,,,,,,,,,,,
121.06,0.0568,0.0,0.0,27.3721,0.9998,-1.6599,-4.6118,0.8293,0.0221,0.0,1.0,0.5377,0.0,0.0,0.0,1.0,0.5436,-0.0,0.0,0.0,0.5546,0.0001,0.0002,0.8293,0.0065,0.0065,0.048,0.048,0.0479,0.0002,0.0002,-0.0672,0.0,2.0,1.0,1.0,2.8815,0.0,0.0106,0.0,101.2622,101.2622,101.263,0.0059,0.1765,-0.0047,-0.0037,0.0,115.6316,115.6315,115.6587,0.0033,0.0007,0.0001,-0.0,0.0,0.4457,0.4456,-0.0,-0.0001,0.1772,0.1771,-0.0,-0.0001,0.0,27.3999,0.9998,-0.9849,-2.7363,0.5546,,,,,,,
121.084,0.0568,0.0,0.0,27.3721,0.9998,-1.6599,-4.6118,0.8294,0.0221,0.0,1.0,0.5377,0.0,0.0,0.0,1.0,0.5436,-0.0,0.0,0.0,0.5544,0.0001,0.0001,0.8294,0.0065,0.0066,0.0239,0.0239,0.0586,0.0029,0.0029,0.008,0.0,2.0,1.0,,1.4322,0.0,0.1736,0.0,101.2622,101.2622,101.2626,0.0017,0.0877,-0.0023,-0.0012,0.0,115.6316,115.6316,115.6588,0.0,0.012,-0.0003,-0.001,0.0,0.4457,0.4457,0.0,0.0,0.1772,0.1771,-0.0,-0.0001,0.0,27.3999,0.9998,-0.9849,-2.7363,0.5544,,,,,,,
121.085,,,,,,,,,,,,,,,,,,,,,,,,,,,,,,,,,,,,1.0,,,,,,,,,,,,,,,,,,,,,,,,,,,,,,,,,,,,,,,,,
121.109,,,,,,,,,,,,,,,,,,,,,,,,,,,,,,,,,,,,,1.2317,0.0,0.0363,0.0,101.2622,101.2622,101.2625,0.0,0.0754,-0.002,-0.0002,0.0,115.6316,115.6316,115.6588,0.0,,,,,,,,,,,,,,,,,,,,,,,,,
121.11,0.0568,0.0,0.0,27.3721,0.9998,-1.6599,-4.6118,0.8294,0.0221,0.0,1.0,0.5377,0.0,0.0,0.0,1.0,0.5436,-0.0,0.0,0.0,0.5544,0.0001,0.0001,0.8294,0.0065,0.0066,0.0205,0.0205,0.363,-0.0006,-0.0006,-0.0439,0.0,2.0,1.0,1.0,,,,,,,,,,,,,,,,,-0.0025,0.0001,0.0002,0.0,0.4457,0.4457,0.0,0.0,0.1772,0.1771,-0.0,-0.0001,0.0,27.3999,0.9998,-0.9849,-2.7363,0.5544,,,,,,,
121.134,0.0568,0.0,0.0,27.3721,0.9998,-1.6599,-4.6118,0.8294,0.0222,0.0,1.0,0.5377,0.0,0.0,0.0,1.0,0.5436,-0.0,0.0,0.0,0.5543,0.0001,1.0,0.8294,0.0065,0.0066,-0.0081,-0.0081,-0.0976,-0.0013,-0.0013,0.0174,0.0,2.0,1.0,1.0,0.486,0.0,0.0753,0.0,101.2622,101.2622,101.2621,0.0,-0.0298,0.0012,0.0032,0.0,115.6316,115.6316,115.6589,0.0,-0.0052,0.0002,0.0008,0.0,0.4457,0.4458,0.0,0.0002,0.1772,0.1771,-0.0,-0.0001,0.0,27.3999,0.9998,-0.9849,-2.7363,0.5543,,,,,,,
121.159,0.0568,0.0,0.0,27.3721,0.9998,-1.6599,-4.6118,0.8294,0.0222,0.0,1.0,0.5377,0.0,0.0,0.0,1.0,0.5436,-0.0,0.0,0.0,0.5543,0.0001,0.9999,0.8294,0.0065,0.0065,-0.0186,-0.0186,0.0219,-0.0043,-0.0043,-0.0208,0.0,2.0,1.0,1.0,1.1167,0.0,0.2586,0.0,101.2622,101.2622,101.262,0.0,-0.0684,0.0024,0.0026,0.0,115.6316,115.6316,115.6588,0.0,-0.0179,0.0006,0.0004,0.0,0.4457,0.4459,0.0,0.0002,0.1772,0.1771,-0.0,-0.0,0.0,27.3999,0.9998,-0.9849,-2.7363,0.5543,,,,,,,
121.184,0.0568,0.0,0.0,27.3721,0.9998,-1.6599,-4.6118,0.8294,0.0222,0.0,1.0,0.5377,0.0,0.0,0.0,1.0,0.5436,-0.0,0.0,0.0,0.5542,0.0001,0.9999,0.8294,0.0065,0.0065,-0.0373,-0.0373,-0.2597,-0.0024,-0.0025,-0.0165,0.0,2.0,1.0,1.0,2.2363,0.0,0.1457,0.0,101.2622,101.2622,101.2618,0.0,-0.137,0.0045,0.005,0.0,115.6316,115.6316,115.6589,0.0,-0.0101,0.0003,0.0016,0.0,0.4457,0.4459,0.0,0.0003,0.1772,0.1772,-0.0,-0.0,0.0,27.3999,0.9998,-0.9849,-2.7363,0.5542,,,,,,,
121.209,0.0568,0.0,0.0,27.3721,0.9998,-1.6599,-4.6118,0.8294,0.0222,0.0,1.0,0.5377,0.0,0.0,0.0,1.0,0.5436,-0.0,0.0,0.0,0.5542,0.0001,0.9999,0.8294,0.0065,0.0066,-0.0468,-0.0468,-0.0249,0.0014,0.0014,0.0228,0.0,2.0,1.0,1.0,2.8066,0.0,0.0855,0.0,101.2622,101.2622,101.2617,0.0,-0.1719,0.0055,0.0044,0.0,115.6317,115.6316,115.659,0.0,0.0059,-0.0002,0.0006,0.0,0.4457,0.4459,0.0,0.0002,0.1772,0.1771,-0.0,-0.0001,0.0,27.3999,0.9998,-0.9849,-2.7363,0.5542,,,,,,,
121.234,0.0568,0.0,0.0,27.3721,0.9998,-1.6599,-4.6118,0.8294,0.0222,0.0,1.0,0.5377,0.0,0.0,0.0,1.0,0.5436,-0.0,0.0,0.0,0.5542,0.0001,0.9998,0.8294,0.0065,0.0066,-0.0553,-0.0553,0.1048,0.0008,0.0007,-0.1413,0.0,2.0,1.0,1.0,3.3188,0.0,0.0472,0.0,101.2622,101.2622,101.2617,0.0,-0.2033,0.0065,0.0048,0.0,115.6317,115.6317,115.659,0.0,0.0033,-0.0001,-0.0006,0.0,0.4457,0.4459,0.0,0.0002,0.1772,0.1771,-0.0,-0.0001,0.0,27.3999,0.9998,-0.9849,-2.7363,0.5542,,,,,,,
121.259,0.0568,0.0,0.0,27.3721,0.9998,-1.6599,-4.6118,0.8294,0.0222,0.0,1.0,0.5377,0.0,0.0,0.0,1.0,0.5436,-0.0,0.0,0.0,0.5542,0.0001,0.9998,0.8294,0.0065,0.0066,-0.0623,-0.0623,0.2825,0.002,0.002,-0.0639,0.0,2.0,1.0,,3.74,0.0,0.122,0.0,101.2622,101.2622,101.2616,0.0,-0.2291,0.0074,0.005,0.0,115.6317,115.6317,115.659,0.0,0.0084,-0.0002,-0.001,0.0,0.4457,0.4459,0.0,0.0003,0.1772,0.1771,-0.0,-0.0001,0.0,27.3999,0.9998,-0.9849,-2.7363,0.5542,,,,,,,
121.26,,,,,,,,,,,,,,,,,,,,,,,,,,,,,,,,,,,,1.0,,,,,,,,,,,,,,,,,,,,,,,,,,,,,,,,,,,,,,,,,
121.284,0.0568,0.0,0.0,27.3721,0.9998,-1.6599,-4.6118,0.8294,0.0223,0.0,1.0,0.5377,0.0,0.0,0.0,1.0,0.5436,-0.0,0.0,0.0,0.5542,0.0001,0.9999,0.8294,0.0065,0.0066,-0.0605,-0.0605,0.0893,0.0019,0.0019,0.0253,0.0,2.0,1.0,1.0,3.6315,0.0,0.1146,0.0,101.2622,101.2622,101.2617,0.0,-0.2224,0.0073,0.0039,0.0,115.6317,115.6317,115.6591,0.0,0.0079,-0.0003,0.0006,0.0,0.4457,0.4459,0.0,0.0002,0.1772,0.1771,-0.0,-0.0001,0.0,27.3999,0.9998,-0.9849,-2.7363,0.5542,,,,,,,
121.309,0.0568,0.0,0.0,27.3721,0.9998,-1.6599,-4.6118,0.8294,0.0223,0.0,1.0,0.5377,0.0,0.0,0.0,1.0,0.5436,-0.0,0.0,0.0,0.5543,0.0001,0.9999,0.8294,0.0066,0.0066,-0.0523,-0.0523,0.1417,0.0013,0.0013,-0.0405,0.0,2.0,1.0,1.0,3.1399,0.0,0.0806,0.0,101.2622,101.2622,101.262,0.0,-0.1923,0.0064,0.0037,0.0,115.6317,115.6317,115.6591,0.0,0.0056,-0.0002,-0.0006,0.0,0.4457,0.4458,0.0,0.0002,0.1772,0.1771,-0.0001,-0.0,0.0,27.3999,0.9998,-0.9849,-2.7363,0.5543,,,,,,,
121.334,0.0568,0.0,0.0,27.3721,0.9998,-1.6599,-4.6118,0.8294,0.0223,0.0,1.0,0.5377,0.0,0.0,0.0,1.0,0.5436,-0.0,0.0,0.0,0.5543,0.0001,1.0,0.8294,0.0066,0.0066,-0.0457,-0.0457,-0.0286,-0.0022,-0.0022,0.0172,0.0,2.0,1.0,1.0,2.7411,0.0,0.1317,0.0,101.2622,101.2622,101.2622,0.0,-0.1679,0.0057,0.0022,0.0,115.6317,115.6317,115.6592,0.0,-0.0091,0.0002,0.0002,0.0,0.4457,0.4458,0.0,0.0001,0.1772,0.1771,-0.0001,-0.0,0.0,27.3999,0.9998,-0.9849,-2.7363,0.5543,,,,,,,
121.359,0.0568,0.0,0.0,27.3721,0.9998,-1.6599,-4.6118,0.8295,0.0223,0.0,1.0,0.5377,0.0,0.0,0.0,1.0,0.5436,-0.0,0.0,0.0,0.5544,0.0001,0.0,0.8295,0.0066,0.0066,-0.036,-0.036,0.1288,-0.0001,-0.0001,-0.0737,0.0,2.0,1.0,,2.1592,0.0,0.0043,0.0,101.2622,101.2622,101.2624,-0.004,-0.1322,0.0044,0.0017,0.0,115.6318,115.6317,115.6592,0.0,-0.0003,-0.0001,-0.0008,0.0,0.4457,0.4457,0.0,0.0001,0.1772,0.1771,-0.0001,-0.0,0.0,27.3999,0.9998,-0.9849,-2.7363,0.5544,,,,,,,
121.36,,,,,,,,,,,,,,,,,,,,,,,,,,,,,,,,,,,,1.0,,,,,,,,,,,,,,,,,,,,,,,,,,,,,,,,,,,,,,,,,
121.384,0.0568,0.0,0.0,27.3721,0.9998,-1.6599,-4.6118,0.8295,0.0223,0.0,1.0,0.5377,0.0,0.0,0.0,1.0,0.5436,-0.0,0.0,0.0,0.5544,0.0001,0.0001,0.8295,0.0066,0.0066,-0.0247,-0.0247,0.1883,0.004,0.0039,-0.0788,0.0,2.0,1.0,,1.4825,0.0,0.2396,0.0,101.2622,101.2622,101.2626,-0.0044,-0.0908,0.0032,0.0001,0.0,115.6318,115.6317,115.6594,0.0,0.0166,-0.0005,-0.0004,0.0,0.4457,0.4456,0.0,-0.0,0.1771,0.1771,-0.0001,-0.0001,0.0,27.3999,0.9998,-0.9849,-2.7363,0.5544,,,,,,,
121.385,,,,,,,,,,,,,,,,,,,,,,,,,,,,,,,,,,,,1.0,,,,,,,,,,,,,,,,,,,,,,,,,,,,,,,,,,,,,,,,,
121.409,0.0568,0.0,0.0,27.3721,0.9998,-1.6599,-4.6118,0.8295,0.0223,0.0,1.0,0.5377,0.0,0.0,0.0,1.0,0.5436,-0.0,0.0,0.0,0.5545,0.0001,0.0002,0.8295,0.0066,0.0066,-0.0113,-0.0113,0.0719,-0.0058,-0.0059,-0.0155,0.0,2.0,1.0,1.0,0.6808,0.0,0.3477,0.0,101.2622,101.2622,101.2628,-0.0049,-0.0417,0.0017,-0.002,0.0,115.6318,115.6318,115.6593,0.0,-0.0241,0.0007,-0.0004,0.0,0.4457,0.4456,-0.0,-0.0001,0.1771,0.1771,-0.0001,-0.0,0.0,27.3999,0.9998,-0.9849,-2.7363,0.5545,,,,,,,
121.434,0.0568,0.0,0.0,27.3721,0.9998,-1.6599,-4.6118,0.8295,0.0223,0.0,1.0,0.5377,0.0,0.0,0.0,1.0,0.5436,-0.0,0.0,0.0,0.5545,0.0001,0.0002,0.8295,0.0066,0.0066,-0.001,-0.001,-0.1093,0.0007,0.0006,-0.0195,0.0,2.0,1.0,,0.058,0.0,0.0421,0.0,101.2622,101.2622,101.2629,-0.0053,-0.0036,0.0005,-0.0015,0.0,115.6318,115.6318,115.6594,0.0,0.0029,-0.0001,-0.0004,0.0,0.4457,0.4456,0.0,-0.0001,0.1771,0.1771,-0.0001,-0.0,0.0,27.3999,0.9998,-0.9849,-2.7363,0.5545,,,,,,,
121.435,,,,,,,,,,,,,,,,,,,,,,,,,,,,,,,,,,,,1.0,,,,,,,,,,,,,,,,,,,,,,,,,,,,,,,,,,,,,,,,,
121.459,0.0568,0.0,0.0,27.3721,0.9998,-1.6599,-4.6118,0.8295,0.0223,0.0,1.0,0.5377,0.0,0.0,0.0,1.0,0.5436,-0.0,0.0,0.0,0.5546,0.0001,0.0003,0.8295,0.0066,0.0066,0.017,0.017,-0.2254,-0.0003,-0.0004,0.0403,0.0,2.0,1.0,,1.0177,0.0,0.0197,0.0,101.2622,101.2622,101.2632,0.0,0.0623,-0.0014,-0.003,0.0,115.6318,115.6318,115.6594,0.0,-0.0014,-0.0001,-0.0006,0.0,0.4457,0.4455,0.0,-0.0002,0.1771,0.1771,-0.0001,-0.0,0.0,27.3999,0.9998,-0.9849,-2.7363,0.5546,,,,,,,
121.46,,,,,,,,,,,,,,,,,,,,,,,,,,,,,,,,,,,,1.0,,,,,,,,,,,,,,,,,,,,,,,,,,,,,,,,,,,,,,,,,
121.484,0.0568,0.0,0.0,27.3721,0.9998,-1.6599,-4.6118,0.8295,0.0224,0.0,1.0,0.5377,0.0,0.0,0.0,1.0,0.5436,-0.0,0.0,0.0,0.5546,0.0001,0.0003,0.8295,0.0066,0.0066,0.0336,0.0336,-0.2052,-0.0025,-0.0025,-0.0428,0.0,2.0,1.0,,2.0165,0.0,0.1486,0.0,101.2622,101.2622,101.2633,0.0,0.1235,-0.0032,-0.0044,0.0,115.6318,115.6318,115.6594,0.0,-0.0103,0.0002,0.001,0.0,0.4457,0.4454,0.0,-0.0002,0.1771,0.1771,-0.0001,0.0,0.0,27.3999,0.9998,-0.9849,-2.7363,0.5546,,,,,,,
121.485,,,,,,,,,,,,,,,,,,,,,,,,,,,,,,,,,,,,1.0,,,,,,,,,,,,,,,,,,,,,,,,,,,,,,,,,,,,,,,,,
121.509,0.0568,0.0,0.0,27.3721,0.9998,-1.6599,-4.6118,0.8295,0.0224,0.0,1.0,0.5377,0.0,0.0,0.0,1.0,0.5436,-0.0,0.0,0.0,0.5546,0.0001,0.0003,0.8295,0.0067,0.0067,0.0389,0.0389,-0.0032,-0.0016,-0.0017,0.0177,0.0,2.0,1.0,,2.3352,0.0,0.0971,0.0,101.2622,101.2622,101.2633,0.0,0.143,-0.0039,-0.0041,0.0,115.6318,115.6318,115.6596,0.0045,-0.0067,0.0003,-0.0004,0.0,0.4457,0.4454,0.0,-0.0002,0.1771,0.1771,-0.0001,-0.0,0.0,27.3999,0.9998,-0.9849,-2.7363,0.5546,,,,,,,
121.51,,,,,,,,,,,,,,,,,,,,,,,,,,,,,,,,,,,,1.0,,,,,,,,,,,,,,,,,,,,,,,,,,,,,,,,,,,,,,,,,
121.534,0.0568,0.0,0.0,27.3721,0.9998,-1.6599,-4.6118,0.8296,0.0224,0.0,1.0,0.5377,0.0,0.0,0.0,1.0,0.5436,-0.0,0.0,0.0,0.5547,0.0001,0.0003,0.8296,0.0067,0.0067,0.0444,0.0444,0.0722,0.0029,0.0028,0.1103,0.0,2.0,1.0,,2.6622,0.0,0.1734,0.0,101.2622,101.2622,101.2634,0.0,0.1631,-0.0044,-0.0057,0.0,115.6318,115.6318,115.6597,0.0,0.012,-0.0005,0.0004,0.0,0.4457,0.4454,0.0,-0.0002,0.1771,0.1771,-0.0001,-0.0,0.0,27.3999,0.9998,-0.9849,-2.7363,0.5547,,,,,,,
121.535,,,,,,,,,,,,,,,,,,,,,,,,,,,,,,,,,,,,1.0,,,,,,,,,,,,,,,,,,,,,,,,,,,,,,,,,,,,,,,,,
121.559,0.0568,0.0,0.0,27.3721,0.9998,-1.6599,-4.6118,0.8296,0.0224,0.0,1.0,0.5377,0.0,0.0,0.0,1.0,0.5436,-0.0,0.0,0.0,0.5546,0.0001,0.0003,0.8296,0.0067,0.0067,0.0497,0.0497,0.0381,0.0008,0.0007,0.0022,0.0,2.0,1.0,1.0,2.9799,0.0,0.0455,0.0,101.2622,101.2622,101.2633,0.0,0.1825,-0.0051,-0.0057,0.0,115.6319,115.6318,115.6597,0.0,0.0032,-0.0002,-0.0006,0.0,0.4457,0.4455,0.0,-0.0002,0.1771,0.1771,-0.0001,-0.0,0.0,27.3999,0.9998,-0.9849,-2.7363,0.5546,,,,,,,
121.584,0.0568,0.0,0.0,27.3721,0.9998,-1.6599,-4.6118,0.8296,0.0224,0.0,1.0,0.5377,0.0,0.0,0.0,1.0,0.5436,-0.0,0.0,0.0,0.5546,0.0001,0.0003,0.8296,0.0067,0.0067,0.0542,0.0542,-0.0051,-0.001,-0.0011,0.0559,0.0,2.0,1.0,,3.2525,0.0,0.0593,0.0,101.2622,101.2622,101.2633,0.0007,0.1992,-0.0056,-0.0046,0.0,115.6319,115.6319,115.6597,0.0,-0.0041,-0.0,-0.0002,0.0,0.4457,0.4455,0.0,-0.0002,0.1771,0.1771,-0.0001,-0.0,0.0,27.3999,0.9998,-0.9849,-2.7363,0.5546,,,,,,,
121.585,,,,,,,,,,,,,,,,,,,,,,,,,,,,,,,,,,,,1.0,,,,,,,,,,,,,,,,,,,,,,,,,,,,,,,,,,,,,,,,,
121.609,0.0568,0.0,0.0,27.3721,0.9998,-1.6599,-4.6118,0.8296,0.0224,0.0,1.0,0.5377,0.0,0.0,0.0,1.0,0.5436,-0.0,0.0,0.0,0.5546,0.0,0.0003,0.8296,0.0067,0.0067,0.0573,0.0573,0.1059,-0.0012,-0.0013,-0.0847,0.0,2.0,1.0,1.0,3.4371,0.0,0.0718,0.0,101.2622,101.2622,101.2632,0.0012,0.2105,-0.0059,-0.0049,0.0,115.6319,115.6319,115.6597,0.0,-0.005,0.0,0.0002,0.0,0.4457,0.4454,0.0,-0.0002,0.1771,0.1771,-0.0001,-0.0,0.0,27.3999,0.9998,-0.9849,-2.7363,0.5546,,,,,,,
121.634,0.0568,0.0,0.0,27.3721,0.9998,-1.6599,-4.6118,0.8296,0.0224,0.0,1.0,0.5377,0.0,0.0,0.0,1.0,0.5436,-0.0,0.0,0.0,0.5546,0.0001,0.0002,0.8296,0.0067,0.0067,0.0536,0.0536,-0.0701,0.0029,0.0029,-0.038,0.0,2.0,1.0,1.0,3.215,0.0,0.1769,0.0,101.2622,101.2622,101.263,0.0017,0.1969,-0.0055,-0.0037,0.0,115.6319,115.6319,115.6598,0.0,0.0123,-0.0006,-0.001,0.0,0.4457,0.4455,0.0,-0.0002,0.1771,0.1771,-0.0001,-0.0,0.0,27.3999,0.9998,-0.9849,-2.7363,0.5546,,,,,,,
121.659,0.0568,0.0,0.0,27.3721,0.9998,-1.6599,-4.6118,0.8296,0.0224,0.0,1.0,0.5377,0.0,0.0,0.0,1.0,0.5436,-0.0,0.0,0.0,0.5545,0.0001,0.0002,0.8296,0.0067,0.0067,0.0508,0.0508,0.126,-0.0032,-0.0032,0.1109,0.0,2.0,1.0,,3.046,0.0,0.1898,0.0,101.2622,101.2622,101.2629,0.002,0.1866,-0.0053,-0.0035,0.0,115.6319,115.6319,115.6597,0.0,-0.0131,0.0003,0.0008,0.0,0.4457,0.4455,0.0,-0.0001,0.1771,0.1771,-0.0001,0.0,0.0,27.3999,0.9998,-0.9849,-2.7363,0.5545,,,,,,,
121.66,,,,,,,,,,,,,,,,,,,,,,,,,,,,,,,,,,,,1.0,,,,,,,,,,,,,,,,,,,,,,,,,,,,,,,,,,,,,,,,,
121.684,0.0568,0.0,0.0,27.3721,0.9998,-1.6599,-4.6118,0.8296,0.0224,0.0,1.0,0.5377,0.0,0.0,0.0,1.0,0.5436,-0.0,0.0,0.0,0.5545,0.0001,0.0001,0.8296,0.0067,0.0067,0.0421,0.0421,0.0281,0.001,0.001,-0.0211,0.0,2.0,1.0,,2.5267,0.0,0.0629,0.0,101.2622,101.2622,101.2627,0.0022,0.1548,-0.0043,-0.0019,0.0,115.6319,115.6319,115.6597,0.0,0.0044,-0.0003,-0.002,0.0,0.4457,0.4456,0.0,-0.0,0.1771,0.1771,-0.0001,-0.0,0.0,27.3999,0.9998,-0.9849,-2.7363,0.5545,,,,,,,
121.685,,,,,,,,,,,,,,,,,,,,,,,,,,,,,,,,,,,,1.0,,,,,,,,,,,,,,,,,,,,,,,,,,,,,,,,,,,,,,,,,
121.709,0.0568,0.0,0.0,27.3721,0.9998,-1.6599,-4.6118,0.8296,0.0225,0.0,1.0,0.5377,0.0,0.0,0.0,1.0,0.5436,-0.0,0.0,0.0,0.5544,0.0001,0.0001,0.8296,0.0067,0.0067,0.0281,0.0281,-0.2368,-0.005,-0.0051,0.0014,0.0,2.0,1.0,1.0,1.6852,0.0,0.2998,0.0,101.2622,101.2622,101.2625,0.0,0.1032,-0.0029,-0.0017,0.0,115.6319,115.6319,115.6597,0.0,-0.0208,0.0005,0.0,0.0,0.4457,0.4457,0.0,0.0,0.1771,0.1771,-0.0001,0.0,0.0,27.3999,0.9998,-0.9849,-2.7363,0.5544,,,,,,,
121.734,0.0568,0.0,0.0,27.3721,0.9998,-1.6599,-4.6118,0.8296,0.0225,0.0,1.0,0.5377,0.0,0.0,0.0,1.0,0.5436,-0.0,0.0,0.0,0.5543,0.0,0.0,0.8296,0.0067,0.0067,0.0129,0.0129,0.0494,-0.0026,-0.0027,-0.0048,0.0,2.0,1.0,1.0,0.7757,0.0,0.1578,0.0,101.2622,101.2622,101.2622,0.002,0.0475,-0.0011,0.0015,0.0,115.6319,115.6319,115.6597,0.0,-0.0109,0.0001,0.0004,0.0,0.4457,0.4457,0.0,0.0,0.1771,0.1771,-0.0001,0.0,0.0,27.3999,0.9998,-0.9849,-2.7363,0.5543,,,,,,,
121.759,0.0568,0.0,0.0,27.3721,0.9998,-1.6599,-4.6118,0.8296,0.0225,0.0,1.0,0.5377,0.0,0.0,0.0,1.0,0.5436,-0.0,0.0,0.0,0.5543,0.0001,0.9999,0.8296,0.0067,0.0067,-0.0062,-0.0062,-0.0618,0.0008,0.0007,-0.0238,0.0,2.0,1.0,1.0,0.3718,0.0,0.0481,0.0,101.2622,101.2622,101.2619,0.0,-0.0228,0.0009,0.002,0.0,115.6319,115.6319,115.6597,0.0,0.0033,-0.0003,-0.0004,0.0,0.4457,0.4458,0.0,0.0002,0.1771,0.1771,-0.0001,0.0,0.0,27.3999,0.9998,-0.9849,-2.7363,0.5543,,,,,,,
121.784,0.0568,0.0,0.0,27.3721,0.9998,-1.6599,-4.6118,0.8296,0.0225,0.0,1.0,0.5377,0.0,0.0,0.0,1.0,0.5436,-0.0,0.0,0.0,0.5542,0.0001,0.9999,0.8296,0.0067,0.0067,-0.0187,-0.0187,-0.2946,0.0019,0.0018,0.0566,0.0,2.0,1.0,1.0,1.1197,0.0,0.1131,0.0,101.2622,101.2622,101.2618,0.0,-0.0686,0.0023,0.0026,0.0,115.6319,115.6319,115.6598,0.0,0.0078,-0.0004,0.0002,0.0,0.4457,0.4459,0.0,0.0002,0.1771,0.1771,-0.0001,-0.0,0.0,27.3999,0.9998,-0.9849,-2.7363,0.5542,,,,,,,
121.809,0.0568,0.0,0.0,27.3721,0.9998,-1.6599,-4.6118,0.8296,0.0225,0.0,1.0,0.5377,0.0,0.0,0.0,1.0,0.5436,-0.0,0.0,0.0,0.5542,0.0001,0.9998,0.8296,0.0067,0.0067,-0.0325,-0.0325,0.0948,0.0019,0.0019,-0.0084,0.0,2.0,1.0,1.0,1.9525,0.0,0.1154,0.0,101.2622,101.2622,101.2616,0.0,-0.1196,0.004,0.0041,0.0,115.632,115.6319,115.6597,0.0,0.008,-0.0005,-0.0008,0.0,0.4457,0.4459,0.0,0.0002,0.1771,0.1771,-0.0001,0.0,0.0,27.3999,0.9998,-0.9849,-2.7363,0.5542,,,,,,,
121.834,0.0568,0.0,0.0,27.3721,0.9998,-1.6599,-4.6118,0.8296,0.0225,0.0,1.0,0.5377,0.0,0.0,0.0,1.0,0.5436,-0.0,0.0,0.0,0.5542,0.0001,0.9998,0.8296,0.0067,0.0067,-0.0437,-0.0437,0.0672,0.0019,0.0018,0.0891,0.0,2.0,1.0,,2.624,0.0,0.114,0.0,101.2622,101.2622,101.2615,0.0,-0.1607,0.0052,0.005,0.0,115.632,115.6319,115.6597,0.0,0.0079,-0.0004,-0.0004,0.0,0.4457,0.4459,0.0,0.0002,0.1771,0.1771,-0.0001,-0.0,0.0,27.3999,0.9998,-0.9849,-2.7363,0.5542,,,,,,,
121.835,,,,,,,,,,,,,,,,,,,,,,,,,,,,,,,,,,,,1.0,,,,,,,,,,,,,,,,,,,,,,,,,,,,,,,,,,,,,,,,,
121.859,0.0568,0.0,0.0,27.3721,0.9998,-1.6599,-4.6118,0.8296,0.0225,0.0,1.0,0.5377,0.0,0.0,0.0,1.0,0.5436,-0.0,0.0,0.0,0.5541,0.0001,0.9998,0.8296,0.0067,0.0067,-0.0538,-0.0538,0.1677,0.0013,0.0013,-0.0677,0.0,2.0,1.0,1.0,3.2278,0.0,0.0794,0.0,101.2622,101.2622,101.2615,0.0,-0.1977,0.0064,0.005,0.0,115.632,115.6319,115.6597,0.0,0.0055,-0.0003,0.0016,0.0,0.4457,0.4459,0.0,0.0002,0.1771,0.1771,-0.0001,-0.0,0.0,27.3999,0.9998,-0.9849,-2.7363,0.5541,,,,,,,
121.884,0.0568,0.0,0.0,27.3721,0.9998,-1.6599,-4.6118,0.8296,0.0225,0.0,1.0,0.5377,0.0,0.0,0.0,1.0,0.5436,-0.0,0.0,0.0,0.5542,0.0001,0.9998,0.8296,0.0067,0.0067,-0.0618,-0.0618,0.112,0.0011,0.001,-0.0449,0.0,2.0,1.0,,3.7052,0.0,0.0661,0.0,101.2622,101.2622,101.2615,0.0,-0.2269,0.0073,0.0063,0.0,115.632,115.632,115.6597,0.0,0.0046,-0.0004,-0.0002,0.0,0.4457,0.4459,0.0,0.0003,0.1771,0.1771,-0.0001,0.0,0.0,27.3999,0.9998,-0.9849,-2.7363,0.5542,,,,,,,
121.885,,,,,,,,,,,,,,,,,,,,,,,,,,,,,,,,,,,,1.0,,,,,,,,,,,,,,,,,,,,,,,,,,,,,,,,,,,,,,,,,
121.909,0.0568,0.0,0.0,27.3721,0.9998,-1.6599,-4.6118,0.8296,0.0225,0.0,1.0,0.5377,0.0,0.0,0.0,1.0,0.5436,-0.0,0.0,0.0,0.5542,0.0001,0.9999,0.8296,0.0067,0.0067,-0.0585,-0.0585,0.0409,0.0021,0.0021,0.0942,0.0,2.0,1.0,,3.5126,0.0,0.1278,0.0,101.2622,101.2622,101.2617,-0.0021,-0.2151,0.007,0.0037,0.0,115.632,115.632,115.6597,0.0,0.0088,-0.0005,0.0,0.0,0.4457,0.4459,0.0,0.0003,0.1771,0.1771,-0.0001,0.0,0.0,27.3999,0.9998,-0.9849,-2.7363,0.5542,,,,,,,
121.91,,,,,,,,,,,,,,,,,,,,,,,,,,,,,,,,,,,,1.0,,,,,,,,,,,,,,,,,,,,,,,,,,,,,,,,,,,,,,,,,
121.934,0.0568,0.0,0.0,27.3721,0.9998,-1.6599,-4.6118,0.8295,0.0225,0.0,1.0,0.5377,0.0,0.0,0.0,1.0,0.5436,-0.0,0.0,0.0,0.5542,0.0001,0.9999,0.8295,0.0066,0.0066,-0.0584,-0.0584,0.254,-0.0036,-0.0036,0.0935,0.0,2.0,1.0,1.0,3.5036,0.0,0.2145,0.0,101.2622,101.2622,101.2618,-0.0025,-0.2146,0.0069,0.0037,0.0,115.632,115.632,115.6595,0.0,-0.0149,0.0003,-0.0004,0.0,0.4457,0.4459,0.0,0.0002,0.1771,0.1771,-0.0001,0.0,0.0,27.3999,0.9998,-0.9849,-2.7363,0.5542,,,,,,,
121.959,0.0568,0.0,0.0,27.3721,0.9998,-1.6599,-4.6118,0.8296,0.0225,0.0,1.0,0.5377,0.0,0.0,0.0,1.0,0.5436,-0.0,0.0,0.0,0.5543,0.0001,1.0,0.8296,0.0067,0.0067,-0.0448,-0.0448,-0.2434,0.0033,0.0032,-0.0065,0.0,2.0,1.0,,2.6862,0.0,0.1984,0.0,101.2622,101.2622,101.2621,-0.0059,-0.1645,0.0054,0.0024,0.0,115.632,115.632,115.6596,0.0,0.0137,-0.0006,-0.0006,0.0,0.4457,0.4458,0.0,0.0001,0.1771,0.1771,-0.0001,0.0,0.0,27.3999,0.9998,-0.9849,-2.7363,0.5543,,,,,,,
121.96,,,,,,,,,,,,,,,,,,,,,,,,,,,,,,,,,,,,1.0,,,,,,,,,,,,,,,,,,,,,,,,,,,,,,,,,,,,,,,,,
121.984,0.0568,0.0,0.0,27.3721,0.9998,-1.6599,-4.6118,0.8295,0.0225,0.0,1.0,0.5377,0.0,0.0,0.0,1.0,0.5436,-0.0,0.0,0.0,0.5544,0.0001,0.0,0.8295,0.0067,0.0066,-0.0329,-0.0329,-0.0906,-0.0017,-0.0018,0.0784,0.0,2.0,1.0,1.0,1.972,0.0,0.1015,0.0,101.2622,101.2622,101.2624,0.0,-0.1208,0.0043,0.0013,0.0,115.632,115.632,115.6595,0.0,-0.007,0.0,-0.0002,0.0,0.4457,0.4457,0.0,0.0001,0.1771,0.1771,-0.0001,0.0,0.0,27.3999,0.9998,-0.9849,-2.7363,0.5544,,,,,,,
122.009,0.0568,0.0,0.0,27.3721,0.9998,-1.6599,-4.6118,0.8295,0.0225,0.0,1.0,0.5377,0.0,0.0,0.0,1.0,0.5436,-0.0,0.0,0.0,0.5544,0.0001,0.0001,0.8295,0.0066,0.0066,-0.0274,-0.0274,0.0209,0.0018,0.0017,-0.0361,0.0,2.0,1.0,1.0,1.6425,0.0,0.1076,0.0,101.2622,101.2622,101.2625,0.0,-0.1006,0.0036,0.001,0.0,115.632,115.632,115.6595,0.0,0.0075,-0.0004,0.0002,0.0,0.4457,0.4457,0.0,0.0,0.1771,0.1771,-0.0001,0.0,0.0,27.3999,0.9998,-0.9849,-2.7363,0.5544,,,,,,,
122.034,0.0568,0.0,0.0,27.3721,0.9998,-1.6599,-4.6118,0.8295,0.0225,0.0,1.0,0.5377,0.0,0.0,0.0,1.0,0.5436,-0.0,0.0,0.0,0.5545,0.0001,0.0001,0.8295,0.0066,0.0066,-0.0125,-0.0125,-0.0136,0.0045,0.0044,0.0111,0.0,2.0,1.0,1.0,0.7498,0.0,0.269,0.0,101.2622,101.2622,101.2627,0.0,-0.0459,0.0019,-0.0018,0.0,115.632,115.632,115.6596,0.0,0.0186,-0.0008,-0.0004,0.0,0.4457,0.4456,0.0,-0.0001,0.1771,0.1771,-0.0001,0.0,0.0,27.3999,0.9998,-0.9849,-2.7363,0.5545,,,,,,,
122.059,0.0568,0.0,0.0,27.3721,0.9998,-1.6599,-4.6118,0.8295,0.0225,0.0,1.0,0.5377,0.0,0.0,0.0,1.0,0.5436,-0.0,0.0,0.0,0.5545,0.0001,0.0002,0.8295,0.0066,0.0066,0.0026,0.0026,-0.2742,0.0018,0.0017,-0.0058,0.0,2.0,1.0,1.0,0.1544,0.0,0.1077,0.0,101.2622,101.2622,101.2629,0.0,0.0095,0.0003,-0.0022,0.0,115.632,115.632,115.6595,0.0,0.0075,-0.0006,0.0002,0.0,0.4457,0.4455,0.0,-0.0001,0.1771,0.1771,-0.0001,0.0,0.0,27.3999,0.9998,-0.9849,-2.7363,0.5545,,,,,,,
122.084,0.0568,0.0,0.0,27.3721,0.9998,-1.6599,-4.6118,0.8295,0.0225,0.0,1.0,0.5377,0.0,0.0,0.0,1.0,0.5436,-0.0,0.0,0.0,0.5546,0.0001,0.0002,0.8295,0.0066,0.0066,0.0165,0.0165,-0.0906,-0.0033,-0.0034,0.0301,0.0,2.0,1.0,1.0,0.9871,0.0,0.2004,0.0,101.2622,101.2622,101.2631,0.0,0.0605,-0.0013,-0.0035,0.0,115.632,115.632,115.6593,0.0,-0.0139,0.0001,0.0004,0.0,0.4457,0.4455,0.0,-0.0002,0.1771,0.1771,-0.0001,0.0,0.0,27.3999,0.9998,-0.9849,-2.7363,0.5546,,,,,,,
122.109,0.0568,0.0,0.0,27.3721,0.9998,-1.6599,-4.6118,0.8295,0.0225,0.0,1.0,0.5377,0.0,0.0,0.0,1.0,0.5436,-0.0,0.0,0.0,0.5546,0.0001,0.0003,0.8295,0.0066,0.0066,0.0286,0.0286,-0.0416,0.0024,0.0024,-0.0532,0.0,2.0,1.0,1.0,1.7156,0.0,0.1449,0.0,101.2622,101.2622,101.2632,0.0,0.1051,-0.0027,-0.0032,0.0,115.632,115.632,115.6594,0.0,0.01,-0.0005,-0.0004,0.0,0.4457,0.4454,0.0,-0.0002,0.1771,0.1771,-0.0001,0.0,0.0,27.3999,0.9998,-0.9849,-2.7363,0.5546,,,,,,,
122.134,0.0568,0.0,0.0,27.3721,0.9998,-1.6599,-4.6118,0.8295,0.0225,0.0,1.0,0.5377,0.0,0.0,0.0,1.0,0.5436,-0.0,0.0,0.0,0.5546,0.0001,0.0003,0.8295,0.0066,0.0066,0.0374,0.0374,-0.0072,0.0007,0.0007,0.0484,0.0,2.0,1.0,1.0,2.2433,0.0,0.0435,0.0,101.2622,101.2622,101.2632,0.0,0.1374,-0.0037,-0.0037,0.0,115.632,115.632,115.6594,0.0,0.003,-0.0003,-0.001,0.0,0.4457,0.4454,0.0,-0.0002,0.1771,0.1771,-0.0001,0.0,0.0,27.3999,0.9998,-0.9849,-2.7363,0.5546,,,,,,,
122.159,0.0568,0.0,0.0,27.3721,0.9998,-1.6599,-4.6118,0.8295,0.0225,0.0,1.0,0.5377,0.0,0.0,0.0,1.0,0.5436,-0.0,0.0,0.0,0.5546,0.0001,0.0003,0.8295,0.0066,0.0065,0.0458,0.0458,-0.0639,-0.0062,-0.0063,0.0288,0.0,2.0,1.0,,2.7487,0.0,0.3735,0.0,101.2622,101.2622,101.2632,0.0,0.1684,-0.0046,-0.0057,0.0,115.632,115.632,115.6592,0.0,-0.0259,0.0005,-0.0,0.0,0.4457,0.4455,0.0,-0.0002,0.1771,0.1771,-0.0001,0.0001,0.0,27.3999,0.9998,-0.9849,-2.7363,0.5546,,,,,,,
122.16,,,,,,,,,,,,,,,,,,,,,,,,,,,,,,,,,,,,1.0,,,,,,,,,,,,,,,,,,,,,,,,,,,,,,,,,,,,,,,,,
122.184,0.0568,0.0,0.0,27.3721,0.9998,-1.6599,-4.6118,0.8295,0.0225,0.0,1.0,0.5377,0.0,0.0,0.0,1.0,0.5436,-0.0,0.0,0.0,0.5546,0.0001,0.0003,0.8295,0.0066,0.0066,0.0561,0.0561,0.0163,0.0004,0.0003,-0.0336,0.0,2.0,1.0,,3.3681,0.0,0.0226,0.0,101.2622,101.2622,101.2633,0.0,0.2063,-0.0059,-0.0058,0.0,115.632,115.632,115.6593,0.0,0.0016,-0.0003,0.0002,0.0,0.4457,0.4454,0.0,-0.0002,0.1771,0.1771,-0.0001,0.0,0.0,27.3999,0.9998,-0.9849,-2.7363,0.5546,,,,,,,
122.185,,,,,,,,,,,,,,,,,,,,,,,,,,,,,,,,,,,,1.0,,,,,,,,,,,,,,,,,,,,,,,,,,,,,,,,,,,,,,,,,
122.209,0.0568,0.0,0.0,27.3721,0.9998,-1.6599,-4.6118,0.8295,0.0225,0.0,1.0,0.5377,0.0,0.0,0.0,1.0,0.5436,-0.0,0.0,0.0,0.5546,0.0001,0.0003,0.8295,0.0066,0.0066,0.0562,0.0562,0.0178,-0.0024,-0.0024,0.0584,0.0,2.0,1.0,,3.3697,0.0,0.1435,0.0,101.2622,101.2622,101.2632,0.0,0.2064,-0.0059,-0.0052,0.0,115.632,115.632,115.6592,0.0,-0.0099,-0.0001,0.0004,0.0,0.4457,0.4455,0.0,-0.0002,0.1771,0.1771,-0.0001,0.0001,0.0,27.3999,0.9998,-0.9849,-2.7363,0.5546,,,,,,,
122.21,,,,,,,,,,,,,,,,,,,,,,,,,,,,,,,,,,,,1.0,,,,,,,,,,,,,,,,,,,,,,,,,,,,,,,,,,,,,,,,,
122.235,0.0568,0.0,0.0,27.3721,0.9998,-1.6599,-4.6118,0.8295,0.0225,0.0,1.0,0.5377,0.0,0.0,0.0,1.0,0.5436,-0.0,0.0,0.0,0.5546,0.0,0.0002,0.8295,0.0066,0.0066,0.0555,0.0555,-0.159,-0.0041,-0.0041,-0.0485,0.0,2.0,1.0,1.0,3.3286,0.0,0.2436,0.0,101.2622,101.2622,101.263,0.0016,0.2039,-0.0058,-0.0039,0.0,115.632,115.632,115.6592,0.0,-0.0169,0.0002,0.0002,0.0,0.4457,0.4455,0.0,-0.0002,0.1771,0.1771,-0.0001,0.0,0.0,27.3999,0.9998,-0.9849,-2.7363,0.5546,,,,,,,
122.259,0.0568,0.0,0.0,27.3721,0.9998,-1.6599,-4.6118,0.8295,0.0225,0.0,1.0,0.5377,0.0,0.0,0.0,1.0,0.5436,-0.0,0.0,0.0,0.5545,0.0001,0.0002,0.8295,0.0066,0.0066,0.0496,0.0496,0.0937,0.0037,0.0037,0.0149,0.0,2.0,1.0,,2.9755,0.0,0.2225,0.0,101.2622,101.2622,101.2629,0.0061,0.1823,-0.0049,-0.0039,0.0,115.632,115.632,115.6593,0.0,0.0154,-0.0008,-0.001,0.0,0.4457,0.4455,0.0,-0.0001,0.1771,0.1771,-0.0001,0.0,0.0,27.3999,0.9998,-0.9849,-2.7363,0.5545,,,,,,,
122.26,,,,,,,,,,,,,,,,,,,,,,,,,,,,,,,,,,,,1.0,,,,,,,,,,,,,,,,,,,,,,,,,,,,,,,,,,,,,,,,,
122.285,0.0568,0.0,0.0,27.3721,0.9998,-1.6599,-4.6118,0.8295,0.0225,0.0,1.0,0.5377,0.0,0.0,0.0,1.0,0.5436,-0.0,0.0,0.0,0.5545,0.0001,0.0001,0.8295,0.0066,0.0066,0.0395,0.0395,0.1553,0.001,0.0009,0.0808,0.0,2.0,1.0,1.0,2.3695,0.0,0.0591,0.0,101.2622,101.2622,101.2627,0.0004,0.1451,-0.0041,-0.0021,0.0,115.632,115.632,115.6593,0.0,0.0041,-0.0005,0.0004,0.0,0.4457,0.4456,0.0,-0.0001,0.1771,0.1771,-0.0001,0.0,0.0,27.3999,0.9998,-0.9849,-2.7363,0.5545,,,,,,,
122.309,0.0568,0.0,0.0,27.3721,0.9998,-1.6599,-4.6118,0.8295,0.0225,0.0,1.0,0.5377,0.0,0.0,0.0,1.0,0.5436,-0.0,0.0,0.0,0.5544,0.0001,0.0001,0.8295,0.0066,0.0066,0.0265,0.0265,-0.1371,0.0012,0.0012,0.0039,0.0,2.0,1.0,1.0,1.5885,0.0,0.0726,0.0,101.2622,101.2622,101.2625,0.0021,0.0973,-0.0027,-0.0009,0.0,115.632,115.632,115.6593,0.0,0.005,-0.0005,-0.0012,0.0,0.4457,0.4457,0.0,0.0,0.1771,0.1771,-0.0001,0.0,0.0,27.3999,0.9998,-0.9849,-2.7363,0.5544,,,,,,,
122.334,0.0568,0.0,0.0,27.3721,0.9998,-1.6599,-4.6118,0.8295,0.0225,0.0,1.0,0.5377,0.0,0.0,0.0,1.0,0.5436,-0.0,0.0,0.0,0.5543,0.0001,1.0,0.8295,0.0066,0.0066,0.0027,0.0027,0.0538,-0.0018,-0.0019,-0.0617,0.0,2.0,1.0,,0.1611,0.0,0.1092,0.0,101.2622,101.2622,101.2621,0.0,0.0099,-0.0001,0.0013,0.0,115.632,115.632,115.6592,0.0,-0.0076,-0.0002,0.0004,0.0,0.4457,0.4458,0.0,0.0001,0.1771,0.1771,-0.0001,0.0,0.0,27.3999,0.9998,-0.9849,-2.7363,0.5543,,,,,,,
122.335,,,,,,,,,,,,,,,,,,,,,,,,,,,,,,,,,,,,1.0,,,,,,,,,,,,,,,,,,,,,,,,,,,,,,,,,,,,,,,,,
