__time,horn/beat/motor_cmd,horn/beat/cmd_vel_revs,drum/beat/face_jump,drum/beat/cmd_pos,drum/beat/cmd_vel,drum/beat/err_deg,drum/beat/err_ms,drum/beat/pos_frac,drum/beat/motor_cmd,drum/beat/cmd_vel_revs,horn/cam/locked,horn/cam/accel,horn/cam/rev_offset,horn/cam/just_planned,horn/cam/just_locked,drum/cam/locked,drum/cam/accel,drum/cam/rev_offset,drum/cam/just_planned,drum/cam/just_locked,horn/enc/enc0_frac,horn/enc/enc1_frac,horn/enc/est_frac,drum/enc/enc0_frac,drum/enc/enc1_frac,drum/enc/est_frac,horn/vel_est/motor,horn/vel_est/fused,horn/vel_est/enc1,drum/vel_est/motor,drum/vel_est/fused,drum/vel_est/enc1,beat/phase,beat/subdivision,state/ctrl,state/drive,horn/speed/rpm,horn/speed/ref_rpm,drum/speed/rpm,drum/speed/ref_rpm,horn/posctrl/pos/cmd,horn/posctrl/pos/traj,horn/posctrl/pos/meas,horn/posctrl/vel/traj,horn/posctrl/vel/meas,horn/posctrl/torque/cmd,horn/posctrl/torque/meas,horn/posctrl/torque/ff,drum/posctrl/pos/cmd,drum/posctrl/pos/traj,drum/posctrl/pos/meas,drum/posctrl/vel/traj,drum/posctrl/vel/meas,drum/posctrl/torque/cmd,drum/posctrl/torque/meas,drum/posctrl/torque/ff,horn/slip/offset,horn/slip/raw,horn/slip/vel,horn/slip/err,drum/slip/offset,drum/slip/raw,drum/slip/vel,drum/slip/err,horn/beat/face_jump,horn/beat/cmd_pos,horn/beat/cmd_vel,horn/beat/err_deg,horn/beat/err_ms,horn/beat/pos_frac
675.959,0.0399,0.0,0.0,0.0,0.0,0.0,0.0,0.9229,0.6818,3.0477,0.0,0.0,0.0,0.0,0.0,0.0,0.0,0.0,0.0,0.0,0.7387,0.0,1.0,0.9229,0.9995,0.9995,-0.0005,-0.0005,-0.0424,0.0021,0.0021,-0.0249,0.0,2.0,1.0,0.0,,,,,,,,,,,,,,,,,,,,,,,,,,,,,,,,,,
675.984,0.0399,0.0,0.0,0.0,0.0,0.0,0.0,0.9229,0.6818,3.0477,0.0,0.0,0.0,0.0,0.0,0.0,0.0,0.0,0.0,0.0,0.7387,0.0,1.0,0.9229,0.9995,0.9995,0.0015,0.0015,0.2243,0.0011,0.0011,0.0015,0.0,2.0,1.0,0.0,0.0914,0.0,0.0666,0.0,57.8399,57.8399,57.8399,0.0,0.0056,-0.0041,-0.0007,0.0,57.8658,57.8657,57.8637,0.0,0.0046,-0.0014,-0.002,0.0,0.2613,0.2613,0.0,0.0,0.0766,0.0766,-0.0,-0.0,0.0,0.0,0.0,0.0,0.0,0.7387
676.009,0.0399,0.0,0.0,0.0,0.0,0.0,0.0,0.9229,0.6818,3.0477,0.0,0.0,0.0,0.0,0.0,0.0,0.0,0.0,0.0,0.0,0.7387,1.0,1.0,0.9229,0.9995,0.9995,0.0006,0.0006,0.0457,0.0012,0.0012,-0.021,0.0,2.0,1.0,,0.0375,0.0,0.0693,0.0,57.8399,57.8399,57.8399,0.0,0.0023,-0.0041,-0.0,0.0,57.8658,57.8657,57.8637,0.0,0.0048,-0.0015,-0.0015,0.0,0.2613,0.2612,0.0,-0.0,0.0766,0.0766,-0.0,0.0,0.0,0.0,0.0,0.0,0.0,0.7387
676.01,,,,,,,,,,,,,,,,,,,,,,,,,,,,,,,,,,,,0.0,,,,,,,,,,,,,,,,,,,,,,,,,,,,,,,,,,
676.034,0.0399,0.0,0.0,0.0,0.0,0.0,0.0,0.9229,0.6818,3.0477,0.0,0.0,0.0,0.0,0.0,0.0,0.0,0.0,0.0,0.0,0.7387,1.0,1.0,0.9229,0.9995,0.9995,0.0002,0.0002,0.1436,0.0005,0.0005,0.0161,0.0,2.0,1.0,0.0,0.0091,0.0,0.0307,0.0,57.8399,57.8399,57.8399,0.0,0.0006,-0.0039,0.0003,0.0,57.8658,57.8657,57.8637,0.0,0.0021,-0.0014,-0.0011,0.0,0.2613,0.2612,0.0,-0.0,0.0766,0.0766,-0.0,0.0,0.0,0.0,0.0,0.0,0.0,0.7387
676.059,0.0399,0.0,0.0,0.0,0.0,0.0,0.0,0.9229,0.6818,3.0477,0.0,0.0,0.0,0.0,0.0,0.0,0.0,0.0,0.0,0.0,0.7388,1.0,0.0,0.9229,0.9995,0.9995,0.0032,0.0032,-0.1679,-0.0021,-0.0021,0.0068,0.0,2.0,1.0,0.0,0.1896,0.0,0.1258,0.0,57.8399,57.8399,57.8399,0.0,0.0116,-0.0042,-0.0004,0.0,57.8658,57.8657,57.8637,0.0,-0.0087,-0.001,-0.002,0.0,0.2613,0.2612,0.0,-0.0,0.0766,0.0766,-0.0,0.0,0.0,0.0,0.0,0.0,0.0,0.7388
676.084,0.0399,0.0,0.0,0.0,0.0,0.0,0.0,0.9229,0.6818,3.0477,0.0,0.0,0.0,0.0,0.0,0.0,0.0,0.0,0.0,0.0,0.7387,1.0,1.0,0.9229,0.9995,0.9995,-0.0045,-0.0044,0.0822,-0.0006,-0.0006,0.0509,0.0,2.0,1.0,,0.2671,0.0,0.0336,0.0,57.8399,57.8399,57.8398,0.0,-0.0164,-0.0034,-0.0004,0.0,57.8658,57.8657,57.8637,0.0,-0.0023,-0.0012,-0.0014,0.0,0.2613,0.2612,0.0,-0.0,0.0766,0.0766,-0.0,-0.0,0.0,0.0,0.0,0.0,0.0,0.7387
676.085,,,,,,,,,,,,,,,,,,,,,,,,,,,,,,,,,,,,0.0,,,,,,,,,,,,,,,,,,,,,,,,,,,,,,,,,,
676.109,0.0399,0.0,0.0,0.0,0.0,0.0,0.0,0.9229,0.6818,3.0477,0.0,0.0,0.0,0.0,0.0,0.0,0.0,0.0,0.0,0.0,0.7387,1.0,1.0,0.9229,0.9995,0.9995,-0.0027,-0.0027,-0.1287,-0.0,-0.0,0.0469,0.0,2.0,1.0,0.0,0.1614,0.0,0.0018,0.0,57.8399,57.8399,57.8398,0.0,-0.0099,-0.0036,-0.0015,0.0,57.8658,57.8657,57.8637,0.0,-0.0001,-0.0014,-0.0017,0.0,0.2613,0.2612,0.0,-0.0,0.0766,0.0766,-0.0,-0.0,0.0,0.0,0.0,0.0,0.0,0.7387
676.134,0.0399,0.0,0.0,0.0,0.0,0.0,0.0,0.9229,0.6818,3.0477,0.0,0.0,0.0,0.0,0.0,0.0,0.0,0.0,0.0,0.0,0.7387,1.0,1.0,0.9229,0.9995,0.9995,-0.0035,-0.0035,-0.0464,0.0009,0.0009,0.025,0.0,2.0,1.0,0.0,0.2121,0.0,0.0517,0.0,57.8399,57.8399,57.8398,0.0,-0.013,-0.0035,-0.0004,0.0,57.8658,57.8657,57.8637,0.0,0.0036,-0.0015,-0.0029,0.0,0.2613,0.2613,0.0,0.0,0.0766,0.0766,-0.0,-0.0,0.0,0.0,0.0,0.0,0.0,0.7387
676.159,,,,,,,,,,,,,,,,,,,,,,,,,,,,,,,,,,,,,0.2306,0.0,0.156,0.0,57.8399,57.8399,57.8399,0.0,0.0141,-0.0043,-0.0018,0.0,57.8658,57.8657,57.8636,0.0,,,,,,,,,,,,,,,,,,
676.16,0.0399,0.0,0.0,0.0,0.0,0.0,0.0,0.9229,0.6818,3.0477,0.0,0.0,0.0,0.0,0.0,0.0,0.0,0.0,0.0,0.0,0.7388,1.0,0.0,0.9229,0.9995,0.9995,0.0038,0.0038,0.0629,-0.0026,-0.0026,-0.1195,0.0,2.0,1.0,0.0,,,,,,,,,,,,,,,,,-0.0108,-0.001,-0.0013,0.0,0.2613,0.2612,0.0,-0.0,0.0766,0.0766,-0.0,0.0,0.0,0.0,0.0,0.0,0.0,0.7388
676.184,0.0399,0.0,0.0,0.0,0.0,0.0,0.0,0.9229,0.6818,3.0477,0.0,0.0,0.0,0.0,0.0,0.0,0.0,0.0,0.0,0.0,0.7387,0.0,1.0,0.9229,0.9995,0.9995,-0.0005,-0.0005,-0.026,-0.0027,-0.0027,-0.0912,0.0,2.0,1.0,0.0,0.0308,0.0,0.1604,0.0,57.8399,57.8399,57.8399,0.0,-0.0019,-0.0039,-0.0006,0.0,57.8658,57.8657,57.8637,0.0,-0.0111,-0.0011,-0.0018,0.0,0.2613,0.2613,0.0,0.0,0.0766,0.0766,-0.0,0.0,0.0,0.0,0.0,0.0,0.0,0.7387
676.209,0.0399,0.0,0.0,0.0,0.0,0.0,0.0,0.9229,0.6818,3.0477,0.0,0.0,0.0,0.0,0.0,0.0,0.0,0.0,0.0,0.0,0.7387,1.0,1.0,0.9229,0.9995,0.9995,-0.0013,-0.0013,0.0381,0.0003,0.0003,0.031,0.0,2.0,1.0,0.0,0.0763,0.0,0.0161,0.0,57.8399,57.8399,57.8399,0.0,-0.0047,-0.0039,0.0002,0.0,57.8658,57.8657,57.8637,0.0,0.0011,-0.0013,-0.0013,0.0,0.2613,0.2612,0.0,-0.0,0.0766,0.0766,-0.0,-0.0,0.0,0.0,0.0,0.0,0.0,0.7387
676.234,0.0399,0.0,0.0,0.0,0.0,0.0,0.0,0.9229,0.6818,3.0477,0.0,0.0,0.0,0.0,0.0,0.0,0.0,0.0,0.0,0.0,0.7387,0.0,1.0,0.9229,0.9995,0.9995,-0.0022,-0.0022,-0.0559,-0.0006,-0.0006,-0.0196,0.0,2.0,1.0,0.0,0.1347,0.0,0.0344,0.0,57.8399,57.8399,57.8399,0.0,-0.0082,-0.0037,-0.0004,0.0,57.8658,57.8657,57.8637,0.0,-0.0024,-0.0013,-0.0029,0.0,0.2612,0.2613,0.0,0.0,0.0766,0.0766,-0.0,0.0,0.0,0.0,0.0,0.0,0.0,0.7387
676.259,0.0399,0.0,0.0,0.0,0.0,0.0,0.0,0.9229,0.6818,3.0477,0.0,0.0,0.0,0.0,0.0,0.0,0.0,,,,,,,,,,,,,,,,,,,,0.0118,0.0,0.0802,0.0,57.8399,57.8399,57.8399,0.0,-0.0007,-0.0039,-0.0004,0.0,57.8658,57.8657,57.8637,0.0,0.0056,-0.0016,-0.0018,0.0,0.2612,0.2612,-0.0,-0.0,0.0766,0.0766,-0.0,-0.0,0.0,0.0,0.0,0.0,0.0,0.7387
676.26,,,,,,,,,,,,,,,,,,0.0,0.0,0.0,0.7387,1.0,1.0,0.9229,0.9995,0.9995,-0.0002,-0.0002,-0.175,0.0013,0.0013,0.071,0.0,2.0,1.0,0.0,,,,,,,,,,,,,,,,,,,,,,,,,,,,,,,,,,
676.284,0.0399,0.0,0.0,0.0,0.0,0.0,0.0,0.9229,0.6818,3.0477,0.0,0.0,0.0,0.0,0.0,0.0,0.0,0.0,0.0,0.0,0.7387,1.0,1.0,0.9229,0.9995,0.9995,-0.003,-0.003,0.2178,0.0014,0.0014,-0.0402,0.0,2.0,1.0,,0.1778,0.0,0.0863,0.0,57.8399,57.8399,57.8399,0.0059,-0.0109,-0.0035,-0.0014,0.0,57.8658,57.8657,57.8637,0.0,0.006,-0.0015,-0.0015,0.0,0.2612,0.2612,-0.0,-0.0,0.0766,0.0766,-0.0,-0.0,0.0,0.0,0.0,0.0,0.0,0.7387
676.285,,,,,,,,,,,,,,,,,,,,,,,,,,,,,,,,,,,,0.0,,,,,,,,,,,,,,,,,,,,,,,,,,,,,,,,,,
676.309,0.0399,0.0,0.0,0.0,0.0,0.0,0.0,0.923,0.6818,3.0477,0.0,0.0,0.0,0.0,0.0,0.0,0.0,0.0,0.0,0.0,0.7387,1.0,1.0,0.923,0.9995,0.9995,-0.0006,-0.0006,0.0935,0.0041,0.0041,0.0109,0.0,2.0,1.0,,0.0363,0.0,0.2472,0.0,57.8399,57.8399,57.8399,0.0,-0.0022,-0.0039,0.0,0.0,57.8658,57.8657,57.8638,0.0,0.0171,-0.0018,-0.0014,0.0,0.2612,0.2613,-0.0,0.0,0.0766,0.0765,-0.0,-0.0,0.0,0.0,0.0,0.0,0.0,0.7387
676.31,,,,,,,,,,,,,,,,,,,,,,,,,,,,,,,,,,,,0.0,,,,,,,,,,,,,,,,,,,,,,,,,,,,,,,,,,
676.334,0.0399,0.0,0.0,0.0,0.0,0.0,0.0,0.9229,0.6818,3.0477,0.0,0.0,0.0,0.0,0.0,0.0,0.0,0.0,0.0,0.0,0.7388,0.9999,0.0,0.9229,0.9995,0.9995,0.0051,0.0051,0.1886,-0.0018,-0.0018,0.1082,0.0,2.0,1.0,,0.3088,0.0,0.1105,0.0,57.8399,57.8399,57.8399,0.0,0.0189,-0.0044,-0.0011,0.0,57.8658,57.8657,57.8637,0.0,-0.0077,-0.001,-0.0021,0.0,0.2612,0.2612,-0.0,-0.0001,0.0766,0.0766,-0.0,0.0,0.0,0.0,0.0,0.0,0.0,0.7388
676.335,,,,,,,,,,,,,,,,,,,,,,,,,,,,,,,,,,,,0.0,,,,,,,,,,,,,,,,,,,,,,,,,,,,,,,,,,
676.359,,,,,,,,,,,,,,,,,,,,,,,,,,,,,,,,,,,,,0.1741,0.0,0.2437,0.0,57.8399,57.8399,57.8399,0.0,0.0107,-0.0043,-0.0007,0.0,57.8658,57.8658,57.8638,0.0,,,,,,,,,,,,,,,,,,
676.36,,,,,,,,,,,,,,,,,,,,,,,,,,,,,,,,,,,,0.0,,,,,,,,,,,,,,,,,,,,,,,,,,,,,,,,,,
676.384,0.0399,0.0,0.0,0.0,0.0,0.0,0.0,0.923,0.6818,3.0477,0.0,0.0,0.0,0.0,0.0,0.0,0.0,0.0,0.0,0.0,0.7388,0.9999,0.0,0.923,0.9995,0.9995,0.0044,0.0043,0.1209,0.0014,0.0014,0.0022,0.0,2.0,1.0,0.0,0.2613,0.0,0.0848,0.0,57.8399,57.8399,57.84,0.0,0.016,-0.0043,-0.0017,0.0,57.8658,57.8658,57.8638,0.0,0.0059,-0.0014,-0.0032,0.0,0.2612,0.2612,-0.0,-0.0001,0.0766,0.0766,-0.0,-0.0,0.0,0.0,0.0,0.0,0.0,0.7388
676.409,0.0399,0.0,0.0,0.0,0.0,0.0,0.0,0.9229,0.6818,3.0477,0.0,0.0,0.0,0.0,0.0,0.0,0.0,0.0,0.0,0.0,0.7387,1.0,1.0,0.9229,0.9995,0.9995,0.0014,0.0014,0.1176,0.0005,0.0004,-0.0409,0.0,2.0,1.0,,0.0841,0.0,0.0271,0.0,57.8399,57.8399,57.8399,0.0,0.0052,-0.0041,-0.0007,0.0,57.8658,57.8658,57.8638,0.0,0.0019,-0.0013,-0.0018,0.0,0.2612,0.2612,-0.0,0.0,0.0766,0.0766,-0.0,0.0,0.0,0.0,0.0,0.0,0.0,0.7387
676.41,,,,,,,,,,,,,,,,,,,,,,,,,,,,,,,,,,,,0.0,,,,,,,,,,,,,,,,,,,,,,,,,,,,,,,,,,
676.434,0.0399,0.0,0.0,0.0,0.0,0.0,0.0,0.923,0.6818,3.0477,0.0,0.0,0.0,0.0,0.0,0.0,0.0,0.0,0.0,0.0,0.7387,1.0,1.0,0.923,0.9995,0.9995,0.0009,0.0009,0.0128,0.0006,0.0006,-0.0397,0.0,2.0,1.0,,0.0565,0.0,0.0376,0.0,57.84,57.8399,57.8399,0.0059,0.0035,-0.0039,-0.0016,0.0,57.8658,57.8658,57.8638,0.0,0.0026,-0.0013,-0.0011,0.0,0.2612,0.2612,-0.0,-0.0,0.0766,0.0766,-0.0,0.0,0.0,0.0,0.0,0.0,0.0,0.7387
676.435,,,,,,,,,,,,,,,,,,,,,,,,,,,,,,,,,,,,0.0,,,,,,,,,,,,,,,,,,,,,,,,,,,,,,,,,,
676.459,0.04,0.0,0.0,0.0,0.0,0.0,0.0,0.9229,0.6818,3.0477,0.0,0.0,0.0,0.0,0.0,0.0,0.0,0.0,0.0,0.0,0.7387,1.0,1.0,0.9229,0.9995,0.9995,-0.0002,-0.0002,-0.0413,-0.0026,-0.0026,0.0697,0.0,2.0,1.0,0.0,0.0091,0.0,0.1547,0.0,57.84,57.8399,57.8399,0.0,-0.0006,-0.0039,-0.0014,0.0,57.8658,57.8658,57.8637,0.0,-0.0107,-0.001,-0.0017,0.0,0.2612,0.2612,-0.0,0.0,0.0766,0.0766,-0.0,0.0,0.0,0.0,0.0,0.0,0.0,0.7387
676.484,0.04,0.0,0.0,0.0,0.0,0.0,0.0,0.9229,0.6818,3.0477,0.0,0.0,0.0,0.0,0.0,0.0,0.0,0.0,0.0,0.0,0.7387,1.0,1.0,0.9229,0.9995,0.9995,-0.0013,-0.0013,0.1024,0.0003,0.0003,-0.0655,0.0,2.0,1.0,0.0,0.0797,0.0,0.02,0.0,57.84,57.8399,57.8399,0.0,-0.0049,-0.0039,-0.0019,0.0,57.8658,57.8658,57.8638,0.0,0.0014,-0.0014,-0.0011,0.0,0.2612,0.2612,-0.0,-0.0,0.0766,0.0766,-0.0,0.0,0.0,0.0,0.0,0.0,0.0,0.7387
676.509,0.04,0.0,0.0,0.0,0.0,0.0,0.0,0.923,0.6818,3.0477,0.0,0.0,0.0,0.0,0.0,0.0,0.0,0.0,0.0,0.0,0.7387,1.0,1.0,0.923,0.9995,0.9995,-0.0029,-0.0029,-0.0623,0.003,0.003,-0.0589,0.0,2.0,1.0,0.0,0.1717,0.0,0.1821,0.0,57.84,57.8399,57.8398,0.0,-0.0105,-0.0036,-0.0004,0.0,57.8658,57.8658,57.8638,0.0,0.0126,-0.0017,-0.0013,0.0,0.2612,0.2613,-0.0,0.0,0.0766,0.0766,-0.0,0.0,0.0,0.0,0.0,0.0,0.0,0.7387
676.534,0.04,0.0,0.0,0.0,0.0,0.0,0.0,0.923,0.6818,3.0477,0.0,0.0,0.0,0.0,0.0,0.0,0.0,0.0,0.0,0.0,0.7387,1.0,1.0,0.923,0.9995,0.9995,-0.0001,-0.0001,0.0266,0.0044,0.0044,-0.0257,0.0,2.0,1.0,,0.0041,0.0,0.2641,0.0,57.84,57.8399,57.8399,0.0,-0.0003,-0.0039,-0.0004,0.0,57.8658,57.8657,57.8638,0.0,0.0183,-0.0019,-0.0013,0.0,0.2612,0.2612,-0.0,-0.0,0.0766,0.0766,-0.0,-0.0,0.0,0.0,0.0,0.0,0.0,0.7387
676.535,,,,,,,,,,,,,,,,,,,,,,,,,,,,,,,,,,,,0.0,,,,,,,,,,,,,,,,,,,,,,,,,,,,,,,,,,
676.559,0.04,0.0,0.0,0.0,0.0,0.0,0.0,0.923,0.6818,3.0477,0.0,0.0,0.0,0.0,0.0,0.0,0.0,0.0,0.0,0.0,0.7388,1.0,1.0,0.923,0.9995,0.9995,0.0034,0.0033,0.0554,0.0014,0.0014,0.0072,0.0,2.0,1.0,0.0,0.2017,0.0,0.0866,0.0,57.84,57.8399,57.8399,0.0,0.0124,-0.0044,-0.0004,0.0,57.8658,57.8657,57.8638,0.0,0.006,-0.0015,-0.0005,0.0,0.2612,0.2612,-0.0,-0.0,0.0766,0.0766,-0.0,0.0,0.0,0.0,0.0,0.0,0.0,0.7388
676.584,0.04,0.0,0.0,0.0,0.0,0.0,0.0,0.9229,0.6818,3.0477,0.0,0.0,0.0,0.0,0.0,0.0,0.0,0.0,0.0,0.0,0.7387,0.9999,1.0,0.9229,0.9995,0.9995,-0.0044,-0.0044,-0.0973,0.0003,0.0003,0.0257,0.0,2.0,1.0,0.0,0.2649,0.0,0.0184,0.0,57.84,57.84,57.8398,0.0,-0.0162,-0.0035,-0.0016,0.0,57.8658,57.8657,57.8638,0.0,0.0013,-0.0015,-0.001,0.0,0.2612,0.2612,-0.0,-0.0,0.0766,0.0766,-0.0,-0.0,0.0,0.0,0.0,0.0,0.0,0.7387
676.609,0.04,0.0,0.0,0.0,0.0,0.0,0.0,0.923,0.6818,3.0477,0.0,0.0,0.0,0.0,0.0,0.0,0.0,0.0,0.0,0.0,0.7388,1.0,1.0,0.923,0.9995,0.9995,0.0021,0.0021,-0.1699,0.0023,0.0023,0.0028,0.0,2.0,1.0,0.0,0.1282,0.0,0.1372,0.0,57.84,57.84,57.8399,0.0,0.0079,-0.0041,-0.0002,0.0,57.8658,57.8657,57.8638,0.0,0.0095,-0.0017,-0.0019,0.0,0.2612,0.2612,-0.0,0.0,0.0766,0.0766,-0.0,-0.0,0.0,0.0,0.0,0.0,0.0,0.7388
676.634,0.04,0.0,0.0,0.0,0.0,0.0,0.0,0.923,0.6818,3.0477,0.0,0.0,0.0,0.0,0.0,0.0,0.0,0.0,0.0,0.0,0.7387,1.0,1.0,0.923,0.9995,0.9995,-0.0002,-0.0003,0.0131,0.0039,0.0039,-0.068,0.0,2.0,1.0,0.0,0.0146,0.0,0.2355,0.0,57.84,57.84,57.8399,0.0,-0.0009,-0.0039,-0.0007,0.0,57.8658,57.8657,57.8638,0.0,0.0163,-0.0018,-0.0009,0.0,0.2612,0.2612,-0.0,-0.0,0.0766,0.0766,-0.0,-0.0,0.0,0.0,0.0,0.0,0.0,0.7387
676.659,0.04,0.0,0.0,0.0,0.0,0.0,0.0,0.923,0.6818,3.0477,0.0,0.0,0.0,0.0,0.0,0.0,0.0,0.0,0.0,0.0,0.7387,1.0,1.0,0.923,0.9995,0.9995,-0.0008,-0.0008,0.0171,-0.0014,-0.0014,-0.0258,0.0,2.0,1.0,0.0,0.0484,0.0,0.0862,0.0,57.84,57.84,57.8399,0.0,-0.003,-0.0039,-0.0006,0.0,57.8658,57.8657,57.8638,0.0,-0.006,-0.0011,-0.0017,0.0,0.2612,0.2612,-0.0,0.0,0.0766,0.0766,-0.0,0.0,0.0,0.0,0.0,0.0,0.0,0.7387
676.684,0.04,0.0,0.0,0.0,0.0,0.0,0.0,0.9229,0.6818,3.0477,0.0,0.0,0.0,0.0,0.0,0.0,0.0,0.0,0.0,0.0,0.7387,1.0,1.0,0.9229,0.9996,0.9995,-0.0017,-0.0017,-0.0419,-0.0025,-0.0025,-0.0349,0.0,2.0,1.0,0.0,0.1011,0.0,0.149,0.0,57.84,57.84,57.8399,0.0,-0.0062,-0.0037,0.0,0.0,57.8658,57.8657,57.8638,0.0,-0.0103,-0.001,-0.0022,0.0,0.2612,0.2612,-0.0,0.0,0.0766,0.0766,-0.0,0.0,0.0,0.0,0.0,0.0,0.0,0.7387
676.709,0.04,0.0,0.0,0.0,0.0,0.0,0.0,0.923,0.6818,3.0477,0.0,0.0,0.0,0.0,0.0,0.0,0.0,0.0,0.0,0.0,0.7388,1.0,1.0,0.923,0.9995,0.9995,0.0037,0.0037,0.1362,0.0018,0.0018,0.0736,0.0,2.0,1.0,0.0,0.2218,0.0,0.1054,0.0,57.84,57.84,57.8399,0.0,0.0136,-0.0043,-0.0004,0.0,57.8658,57.8657,57.8638,0.0,0.0073,-0.0015,-0.0021,0.0,0.2612,0.2612,-0.0,-0.0,0.0766,0.0766,0.0,0.0,0.0,0.0,0.0,0.0,0.0,0.7388
676.734,0.04,0.0,0.0,0.0,0.0,0.0,0.0,0.9229,0.6818,3.0477,0.0,0.0,0.0,0.0,0.0,0.0,0.0,0.0,0.0,0.0,0.7387,1.0,1.0,0.9229,0.9995,0.9995,-0.0016,-0.0016,0.1565,-0.004,-0.004,-0.006,0.0,2.0,1.0,,0.0963,0.0,0.241,0.0,57.84,57.84,57.8399,0.0,-0.0059,-0.0037,-0.0006,0.0,57.8658,57.8657,57.8637,0.0,-0.0167,-0.0008,-0.0004,0.0,0.2612,0.2612,-0.0,-0.0,0.0766,0.0766,0.0,0.0,0.0,0.0,0.0,0.0,0.0,0.7387
676.735,,,,,,,,,,,,,,,,,,,,,,,,,,,,,,,,,,,,0.0,,,,,,,,,,,,,,,,,,,,,,,,,,,,,,,,,,
676.759,0.04,0.0,0.0,0.0,0.0,0.0,0.0,0.9229,0.6818,3.0477,0.0,0.0,0.0,0.0,0.0,0.0,0.0,0.0,0.0,0.0,0.7387,1.0,1.0,0.9229,0.9995,0.9995,-0.0029,-0.0029,-0.2186,-0.0018,-0.0018,0.0405,0.0,2.0,1.0,,0.176,0.0,0.1107,0.0,57.84,57.84,57.8398,0.0,-0.0108,-0.0036,-0.0004,0.0,57.8657,57.8657,57.8638,-0.0039,-0.0077,-0.0012,-0.0021,0.0,0.2612,0.2612,-0.0,0.0,0.0766,0.0766,0.0,0.0,0.0,0.0,0.0,0.0,0.0,0.7387
676.76,,,,,,,,,,,,,,,,,,,,,,,,,,,,,,,,,,,,0.0,,,,,,,,,,,,,,,,,,,,,,,,,,,,,,,,,,
676.784,0.04,0.0,0.0,0.0,0.0,0.0,0.0,0.9229,0.6817,3.0477,0.0,0.0,0.0,0.0,0.0,0.0,0.0,0.0,0.0,0.0,0.7388,0.9999,1.0,0.9229,0.9995,0.9995,0.0047,0.0046,0.1743,-0.0008,-0.0008,-0.104,0.0,2.0,1.0,0.0,0.2794,0.0,0.0458,0.0,57.84,57.84,57.84,0.0,0.0171,-0.0045,-0.0007,0.0,57.8657,57.8657,57.8638,0.0,-0.0032,-0.0012,-0.0014,0.0,0.2612,0.2612,-0.0,-0.0001,0.0766,0.0766,0.0,0.0,0.0,0.0,0.0,0.0,0.0,0.7388
676.809,0.04,0.0,0.0,0.0,0.0,0.0,0.0,0.923,0.6817,3.0477,0.0,0.0,0.0,0.0,0.0,0.0,0.0,0.0,0.0,0.0,0.7387,1.0,1.0,0.923,0.9995,0.9995,-0.0,-0.0,0.0489,0.0024,0.0025,-0.1051,0.0,2.0,1.0,0.0,0.0011,0.0,0.147,0.0,57.84,57.84,57.8399,0.0,-0.0001,-0.0039,-0.0011,0.0,57.8657,57.8657,57.8638,0.0,0.0102,-0.0017,-0.0014,0.0,0.2612,0.2612,-0.0,0.0,0.0766,0.0766,0.0,-0.0,0.0,0.0,0.0,0.0,0.0,0.7387
676.834,0.04,0.0,0.0,0.0,0.0,0.0,0.0,0.9229,0.6817,3.0477,0.0,0.0,0.0,0.0,0.0,0.0,0.0,0.0,0.0,0.0,0.7387,1.0,1.0,0.9229,0.9995,0.9995,0.0002,0.0002,-0.1669,-0.0009,-0.0009,-0.0225,0.0,2.0,1.0,0.0,0.0107,0.0,0.0558,0.0,57.84,57.84,57.8399,0.0,0.0007,-0.004,-0.0004,0.0,57.8657,57.8657,57.8637,0.0,-0.0039,-0.0012,-0.0017,0.0,0.2612,0.2612,-0.0,0.0,0.0766,0.0766,0.0,0.0,0.0,0.0,0.0,0.0,0.0,0.7387
676.859,0.04,0.0,0.0,0.0,0.0,0.0,0.0,0.923,0.6817,3.0477,0.0,0.0,0.0,0.0,0.0,0.0,0.0,0.0,0.0,0.0,0.7387,1.0,1.0,0.923,0.9995,0.9995,-0.0006,-0.0006,0.0338,0.003,0.003,-0.0947,0.0,2.0,1.0,,0.0336,0.0,0.1795,0.0,57.84,57.84,57.8399,0.0,-0.0021,-0.004,0.0001,0.0,57.8657,57.8657,57.8638,0.0,0.0124,-0.0017,-0.0015,0.0,0.2612,0.2612,-0.0,-0.0,0.0766,0.0766,0.0,-0.0,0.0,0.0,0.0,0.0,0.0,0.7387
676.86,,,,,,,,,,,,,,,,,,,,,,,,,,,,,,,,,,,,0.0,,,,,,,,,,,,,,,,,,,,,,,,,,,,,,,,,,
676.884,0.04,0.0,0.0,0.0,0.0,0.0,0.0,0.9229,0.6817,3.0477,0.0,0.0,0.0,0.0,0.0,0.0,0.0,0.0,0.0,0.0,0.7387,1.0,1.0,0.9229,0.9995,0.9995,-0.0009,-0.0009,0.0994,0.0017,0.0017,0.13,0.0,2.0,1.0,0.0,0.0529,0.0,0.0997,0.0,57.84,57.84,57.8399,0.0,-0.0032,-0.0038,-0.0017,0.0,57.8657,57.8657,57.8638,0.0,0.0069,-0.0015,-0.0017,0.0,0.2612,0.2612,-0.0,-0.0,0.0766,0.0766,0.0,-0.0,0.0,0.0,0.0,0.0,0.0,0.7387
676.909,0.04,0.0,0.0,0.0,0.0,0.0,0.0,0.923,0.6817,3.0477,0.0,0.0,0.0,0.0,0.0,0.0,0.0,0.0,0.0,0.0,0.7387,0.9999,0.9999,0.923,0.9995,0.9995,-0.0051,-0.0051,0.0109,0.0033,0.0033,0.0407,0.0,2.0,1.0,,0.304,0.0,0.196,0.0,57.84,57.84,57.8398,0.0,-0.0186,-0.0033,-0.0004,0.0,57.8657,57.8657,57.8638,0.0,0.0136,-0.0017,-0.0025,0.0,0.2612,0.2612,-0.0,-0.0,0.0766,0.0765,0.0,-0.0,0.0,0.0,0.0,0.0,0.0,0.7387
676.91,,,,,,,,,,,,,,,,,,,,,,,,,,,,,,,,,,,,0.0,,,,,,,,,,,,,,,,,,,,,,,,,,,,,,,,,,
676.934,0.04,0.0,0.0,0.0,0.0,0.0,0.0,0.9229,0.6817,3.0477,0.0,0.0,0.0,0.0,0.0,0.0,0.0,0.0,0.0,0.0,0.7387,0.9999,0.9999,0.9229,0.9995,0.9995,-0.0062,-0.0062,0.1735,0.0018,0.0018,0.0231,0.0,2.0,1.0,0.0,0.3714,0.0,0.1051,0.0,57.84,57.84,57.8398,0.0,-0.0227,-0.0033,-0.001,0.0,57.8657,57.8657,57.8638,0.0,0.0073,-0.0015,-0.0014,0.0,0.2612,0.2612,-0.0,-0.0,0.0766,0.0766,0.0,0.0,0.0,0.0,0.0,0.0,0.0,0.7387
676.959,0.04,0.0,0.0,0.0,0.0,0.0,0.0,0.9229,0.6817,3.0477,0.0,0.0,0.0,0.0,0.0,0.0,0.0,0.0,0.0,0.0,0.7387,1.0,0.9999,0.9229,0.9995,0.9995,-0.0047,-0.0047,0.0075,0.0008,0.0008,0.0574,0.0,2.0,1.0,0.0,0.2835,0.0,0.0459,0.0,57.84,57.84,57.8398,0.0,-0.0174,-0.0034,-0.0004,0.0,57.8657,57.8657,57.8638,0.0,0.0032,-0.0014,-0.0018,0.0,0.2612,0.2612,-0.0,0.0,0.0766,0.0766,0.0,-0.0,0.0,0.0,0.0,0.0,0.0,0.7387
676.984,0.04,0.0,0.0,0.0,0.0,0.0,0.0,0.9229,0.6818,3.0477,0.0,0.0,0.0,0.0,0.0,0.0,0.0,0.0,0.0,0.0,0.7387,1.0,0.9999,0.9229,0.9995,0.9995,-0.0036,-0.0036,-0.1732,0.0008,0.0008,0.0566,0.0,2.0,1.0,,0.2159,0.0,0.0494,0.0,57.84,57.84,57.8398,0.0,-0.0132,-0.0035,-0.0007,0.0,57.8657,57.8657,57.8638,0.0,0.0034,-0.0013,-0.0013,0.0,0.2612,0.2613,-0.0,0.0,0.0766,0.0766,0.0,-0.0,0.0,0.0,0.0,0.0,0.0,0.7387
676.985,,,,,,,,,,,,,,,,,,,,,,,,,,,,,,,,,,,,0.0,,,,,,,,,,,,,,,,,,,,,,,,,,,,,,,,,,
677.009,0.04,0.0,0.0,0.0,0.0,0.0,0.0,0.9229,0.6818,3.0477,0.0,0.0,0.0,0.0,0.0,0.0,0.0,0.0,0.0,0.0,0.7387,1.0,0.9999,0.9229,0.9995,0.9995,-0.0034,-0.0035,-0.1117,0.001,0.001,0.1287,0.0,2.0,1.0,0.0,0.2069,0.0,0.0579,0.0,57.84,57.84,57.8398,0.0,-0.0127,-0.0035,-0.001,0.0,57.8658,57.8657,57.8638,0.0042,0.004,-0.0012,-0.0003,0.0,0.2612,0.2613,-0.0,0.0,0.0766,0.0766,0.0,-0.0,0.0,0.0,0.0,0.0,0.0,0.7387
677.034,0.04,0.0,0.0,0.0,0.0,0.0,0.0,0.9229,0.6818,3.0477,0.0,0.0,0.0,0.0,0.0,0.0,0.0,0.0,0.0,0.0,0.7387,1.0,0.9999,0.9229,0.9995,0.9995,-0.0053,-0.0053,-0.1473,0.0016,0.0016,-0.113,0.0,2.0,1.0,0.0,0.3173,0.0,0.0938,0.0,57.84,57.84,57.8398,0.0,-0.0194,-0.0033,-0.0006,0.0,57.8658,57.8657,57.8638,0.0,0.0065,-0.0016,-0.0014,0.0,0.2612,0.2613,-0.0,0.0,0.0766,0.0766,-0.0,-0.0,0.0,0.0,0.0,0.0,0.0,0.7387
677.059,0.04,0.0,0.0,0.0,0.0,0.0,0.0,0.9229,0.6818,3.0477,0.0,0.0,0.0,0.0,0.0,0.0,0.0,0.0,0.0,0.0,0.7387,1.0,0.9999,0.9229,0.9995,0.9995,-0.0047,-0.0047,-0.05,0.0006,0.0006,0.1095,0.0,2.0,1.0,,0.2841,0.0,0.0367,0.0,57.84,57.84,57.8398,0.0,-0.0174,-0.0035,-0.0008,0.0,57.8658,57.8657,57.8638,0.0,0.0025,-0.0014,-0.0003,0.0,0.2612,0.2612,-0.0,0.0,0.0766,0.0766,-0.0,0.0,0.0,0.0,0.0,0.0,0.0,0.7387
677.06,,,,,,,,,,,,,,,,,,,,,,,,,,,,,,,,,,,,0.0,,,,,,,,,,,,,,,,,,,,,,,,,,,,,,,,,,
677.084,0.04,0.0,0.0,0.0,0.0,0.0,0.0,0.9229,0.6818,3.0477,0.0,0.0,0.0,0.0,0.0,0.0,0.0,0.0,0.0,0.0,0.7387,0.9999,0.9999,0.9229,0.9995,0.9995,-0.003,-0.003,-0.0036,-0.0021,-0.0021,-0.0335,0.0,2.0,1.0,0.0,0.181,0.0,0.1242,0.0,57.84,57.84,57.8398,0.0,-0.0111,-0.0036,0.0003,0.0,57.8658,57.8657,57.8637,0.0,-0.0086,-0.0011,-0.0021,0.0,0.2612,0.2612,-0.0,-0.0,0.0766,0.0766,-0.0,0.0,0.0,0.0,0.0,0.0,0.0,0.7387
677.109,0.04,0.0,0.0,0.0,0.0,0.0,0.0,0.923,0.6818,3.0477,0.0,0.0,0.0,0.0,0.0,0.0,0.0,0.0,0.0,0.0,0.7387,1.0,0.9999,0.923,0.9995,0.9995,-0.0009,-0.0009,-0.0221,0.0028,0.0028,-0.0323,0.0,2.0,1.0,0.0,0.0561,0.0,0.1704,0.0,57.84,57.84,57.8398,0.0,-0.0034,-0.0039,-0.0016,0.0,57.8658,57.8657,57.8638,0.0,0.0118,-0.0016,-0.0028,0.0,0.2612,0.2613,-0.0,0.0,0.0766,0.0766,-0.0,-0.0,0.0,0.0,0.0,0.0,0.0,0.7387
677.134,0.04,0.0,0.0,0.0,0.0,0.0,0.0,0.923,0.6818,3.0477,0.0,0.0,0.0,0.0,0.0,0.0,0.0,0.0,0.0,0.0,0.7387,1.0,1.0,0.923,0.9995,0.9995,0.0045,0.0045,0.0968,0.0019,0.0019,0.0121,0.0,2.0,1.0,0.0,0.2683,0.0,0.1121,0.0,57.84,57.84,57.8399,0.0,0.0164,-0.0044,-0.0016,0.0,57.8658,57.8657,57.8638,0.0,0.0078,-0.0014,-0.0013,0.0,0.2612,0.2612,-0.0,0.0,0.0766,0.0766,-0.0,-0.0,0.0,0.0,0.0,0.0,0.0,0.7387
677.159,0.04,0.0,0.0,0.0,0.0,0.0,0.0,0.923,0.6818,3.0477,0.0,0.0,0.0,0.0,0.0,0.0,0.0,0.0,0.0,0.0,0.7387,1.0,0.9999,0.923,0.9995,0.9996,0.0004,0.0004,-0.2741,0.0056,0.0056,-0.1096,0.0,2.0,1.0,0.0,0.0223,0.0,0.3387,0.0,57.84,57.84,57.8398,0.0,0.0014,-0.0039,-0.0014,0.0,57.8658,57.8657,57.8639,0.0,0.0235,-0.0021,-0.0021,0.0,0.2612,0.2612,-0.0,0.0,0.0766,0.0765,-0.0,-0.0,0.0,0.0,0.0,0.0,0.0,0.7387
677.184,0.04,0.0,0.0,0.0,0.0,0.0,0.0,0.923,0.6818,3.0477,0.0,0.0,0.0,0.0,0.0,0.0,0.0,0.0,0.0,0.0,0.7387,0.9999,0.9999,0.923,0.9995,0.9995,-0.0037,-0.0037,-0.0066,0.0005,0.0005,0.0918,0.0,2.0,1.0,,0.2239,0.0,0.0285,0.0,57.84,57.84,57.8397,0.0,-0.0137,-0.0035,-0.0007,0.0,57.8658,57.8657,57.8638,0.0,0.002,-0.0014,-0.0014,0.0,0.2612,0.2612,-0.0,0.0,0.0766,0.0766,-0.0,-0.0,0.0,0.0,0.0,0.0,0.0,0.7387
677.185,,,,,,,,,,,,,,,,,,,,,,,,,,,,,,,,,,,,0.0,,,,,,,,,,,,,,,,,,,,,,,,,,,,,,,,,,
677.209,0.04,0.0,0.0,0.0,0.0,0.0,0.0,0.923,0.6818,3.0477,0.0,0.0,0.0,0.0,0.0,0.0,0.0,0.0,0.0,0.0,0.7387,0.9999,1.0,0.923,0.9995,0.9995,0.0019,0.0019,0.0679,-0.0003,-0.0003,-0.024,0.0,2.0,1.0,0.0,0.1126,0.0,0.0175,0.0,57.84,57.84,57.8398,0.0,0.0069,-0.0041,-0.001,0.0,57.8658,57.8657,57.8638,0.0,-0.0012,-0.0013,-0.0012,0.0,0.2612,0.2612,-0.0,-0.0,0.0766,0.0766,-0.0,-0.0,0.0,0.0,0.0,0.0,0.0,0.7387
677.234,0.04,0.0,0.0,0.0,0.0,0.0,0.0,0.923,0.6818,3.0477,0.0,0.0,0.0,0.0,0.0,0.0,0.0,0.0,0.0,0.0,0.7387,0.9999,0.9999,0.923,0.9995,0.9995,-0.0007,-0.0007,-0.1889,0.0025,0.0025,-0.0328,0.0,2.0,1.0,0.0,0.0421,0.0,0.1523,0.0,57.84,57.84,57.8398,0.0,-0.0026,-0.0038,-0.0003,0.0,57.8658,57.8657,57.8639,0.0,0.0105,-0.0015,-0.0021,0.0,0.2612,0.2612,-0.0,0.0,0.0766,0.0766,-0.0,-0.0,0.0,0.0,0.0,0.0,0.0,0.7387
677.259,0.04,0.0,0.0,0.0,0.0,0.0,0.0,0.923,0.6818,3.0477,0.0,0.0,0.0,0.0,0.0,0.0,0.0,0.0,0.0,0.0,0.7387,1.0,1.0,0.923,0.9995,0.9995,0.0051,0.0051,-0.0711,0.0004,0.0004,-0.0466,0.0,2.0,1.0,0.0,0.3085,0.0,0.0231,0.0,57.84,57.84,57.8399,0.0,0.0189,-0.0045,-0.0004,0.0,57.8658,57.8657,57.8638,0.0,0.0016,-0.0014,-0.0014,0.0,0.2612,0.2612,-0.0,0.0,0.0766,0.0766,-0.0,-0.0,0.0,0.0,0.0,0.0,0.0,0.7387
677.284,0.04,0.0,0.0,0.0,0.0,0.0,0.0,0.9229,0.6818,3.0477,0.0,0.0,0.0,0.0,0.0,0.0,0.0,0.0,0.0,0.0,0.7387,0.9999,1.0,0.9229,0.9995,0.9995,0.0033,0.0033,-0.0103,-0.0022,-0.0022,0.0618,0.0,2.0,1.0,,0.1979,0.0,0.1335,0.0,57.84,57.84,57.8399,0.0,0.0121,-0.0043,-0.0011,0.0,57.8658,57.8657,57.8638,0.0,-0.0092,-0.0011,-0.0011,0.0,0.2612,0.2612,-0.0,-0.0,0.0766,0.0766,-0.0,0.0,0.0,0.0,0.0,0.0,0.0,0.7387
677.285,,,,,,,,,,,,,,,,,,,,,,,,,,,,,,,,,,,,0.0,,,,,,,,,,,,,,,,,,,,,,,,,,,,,,,,,,
677.309,0.04,0.0,0.0,0.0,0.0,0.0,0.0,0.923,0.6818,3.0477,0.0,0.0,0.0,0.0,0.0,0.0,0.0,0.0,0.0,0.0,0.7387,1.0,1.0,0.923,0.9995,0.9995,0.0005,0.0005,-0.0518,0.0017,0.0017,-0.003,0.0,2.0,1.0,0.0,0.0289,0.0,0.1003,0.0,57.84,57.84,57.8398,0.0,0.0018,-0.004,0.0004,0.0,57.8658,57.8657,57.8638,0.0,0.0069,-0.0015,-0.0021,0.0,0.2612,0.2612,-0.0,0.0,0.0766,0.0766,-0.0,0.0,0.0,0.0,0.0,0.0,0.0,0.7387
677.334,0.04,0.0,0.0,0.0,0.0,0.0,0.0,0.9229,0.6818,3.0477,0.0,0.0,0.0,0.0,0.0,0.0,0.0,0.0,0.0,0.0,0.7387,1.0,1.0,0.9229,0.9995,0.9995,-0.0008,-0.0008,-0.1893,-0.0037,-0.0037,-0.0272,0.0,2.0,1.0,0.0,0.0478,0.0,0.2242,0.0,57.84,57.84,57.8399,0.0,-0.0029,-0.0038,-0.0006,0.0,57.8658,57.8657,57.8637,0.0,-0.0155,-0.0008,-0.0013,0.0,0.2612,0.2612,-0.0,-0.0,0.0766,0.0766,-0.0,0.0,0.0,0.0,0.0,0.0,0.0,0.7387
677.359,0.04,0.0,0.0,0.0,0.0,0.0,0.0,0.9229,0.6818,3.0477,0.0,0.0,0.0,0.0,0.0,0.0,0.0,0.0,0.0,0.0,0.7387,1.0,1.0,0.9229,0.9995,0.9995,-0.0008,-0.0009,0.1155,-0.0037,-0.0037,0.0528,0.0,2.0,1.0,,0.0505,0.0,0.2201,0.0,57.84,57.84,57.8398,0.0,-0.0031,-0.0038,-0.0006,0.0,57.8658,57.8657,57.8637,0.0,-0.0152,-0.0008,-0.0016,0.0,0.2612,0.2612,-0.0,-0.0,0.0766,0.0766,-0.0,0.0,0.0,0.0,0.0,0.0,0.0,0.7387
677.36,,,,,,,,,,,,,,,,,,,,,,,,,,,,,,,,,,,,0.0,,,,,,,,,,,,,,,,,,,,,,,,,,,,,,,,,,
677.385,0.04,0.0,0.0,0.0,0.0,0.0,0.0,0.923,0.6818,3.0477,0.0,0.0,0.0,0.0,0.0,0.0,0.0,0.0,0.0,0.0,0.7387,0.9999,1.0,0.923,0.9995,0.9995,0.002,0.002,-0.1086,0.0018,0.0018,0.0277,0.0,2.0,1.0,0.0,0.1184,0.0,0.1052,0.0,57.84,57.84,57.8399,0.0,0.0073,-0.0042,-0.001,0.0,57.8658,57.8657,57.8638,0.0,0.0073,-0.0016,-0.0011,0.0,0.2612,0.2612,-0.0,-0.0,0.0766,0.0766,-0.0,-0.0,0.0,0.0,0.0,0.0,0.0,0.7387
677.409,0.04,0.0,0.0,0.0,0.0,0.0,0.0,0.9229,0.6818,3.0477,0.0,0.0,0.0,0.0,0.0,0.0,0.0,0.0,0.0,0.0,0.7387,0.9999,1.0,0.9229,0.9995,0.9995,-0.0002,-0.0003,-0.2204,-0.0018,-0.0018,-0.0986,0.0,2.0,1.0,0.0,0.0143,0.0,0.1093,0.0,57.84,57.84,57.8399,0.0,-0.0009,-0.0039,-0.0013,0.0,57.8658,57.8657,57.8637,0.0,-0.0076,-0.0011,-0.0021,0.0,0.2612,0.2612,-0.0,-0.0,0.0766,0.0766,-0.0,0.0,0.0,0.0,0.0,0.0,0.0,0.7387
677.435,0.04,0.0,0.0,0.0,0.0,0.0,0.0,0.9229,0.6818,3.0477,0.0,0.0,0.0,0.0,0.0,0.0,0.0,0.0,0.0,0.0,0.7387,1.0,1.0,0.9229,0.9995,0.9995,0.0011,0.0011,-0.09,-0.0023,-0.0023,-0.0472,0.0,2.0,1.0,0.0,0.0681,0.0,0.1372,0.0,57.84,57.84,57.8399,0.0,0.0042,-0.004,-0.0007,0.0,57.8658,57.8657,57.8637,0.0,-0.0095,-0.001,-0.0013,0.0,0.2612,0.2612,-0.0,0.0,0.0766,0.0766,-0.0,0.0,0.0,0.0,0.0,0.0,0.0,0.7387
677.459,0.04,0.0,0.0,0.0,0.0,0.0,0.0,0.9229,0.6818,3.0477,0.0,0.0,0.0,0.0,0.0,0.0,0.0,0.0,0.0,0.0,0.7387,1.0,0.9999,0.9229,0.9995,0.9995,-0.0032,-0.0032,-0.2165,-0.0045,-0.0045,0.0759,0.0,2.0,1.0,0.0,0.1919,0.0,0.2712,0.0,57.84,57.84,57.8398,0.0,-0.0118,-0.0036,-0.0003,0.0,57.8658,57.8657,57.8636,0.0,-0.0188,-0.0008,-0.0014,0.0,0.2612,0.2612,-0.0,0.0,0.0766,0.0766,-0.0,0.0,0.0,0.0,0.0,0.0,0.0,0.7387
677.484,0.04,0.0,0.0,0.0,0.0,0.0,0.0,0.9229,0.6818,3.0477,0.0,0.0,0.0,0.0,0.0,0.0,0.0,0.0,0.0,0.0,0.7387,1.0,1.0,0.9229,0.9995,0.9995,0.0016,0.0016,0.3837,-0.0015,-0.0015,-0.0784,0.0,2.0,1.0,,0.094,0.0,0.0929,0.0,57.84,57.84,57.8398,0.0,0.0058,-0.0041,-0.0013,0.0,57.8658,57.8657,57.8637,0.0,-0.0064,-0.0011,-0.001,0.0,0.2612,0.2612,-0.0,0.0,0.0766,0.0766,-0.0,0.0,0.0,0.0,0.0,0.0,0.0,0.7387
677.485,,,,,,,,,,,,,,,,,,,,,,,,,,,,,,,,,,,,0.0,,,,,,,,,,,,,,,,,,,,,,,,,,,,,,,,,,
677.509,0.04,0.0,0.0,0.0,0.0,0.0,0.0,0.9229,0.6818,3.0477,0.0,0.0,0.0,0.0,0.0,0.0,0.0,0.0,0.0,0.0,0.7387,1.0,0.9999,0.9229,0.9995,0.9995,-0.003,-0.003,0.0572,0.0004,0.0004,0.0312,0.0,2.0,1.0,0.0,0.181,0.0,0.0241,0.0,57.84,57.84,57.8398,0.0,-0.0111,-0.0035,-0.0006,0.0,57.8658,57.8657,57.8637,0.0,0.0017,-0.0014,-0.0023,0.0,0.2612,0.2613,-0.0,0.0,0.0766,0.0766,-0.0,-0.0,0.0,0.0,0.0,0.0,0.0,0.7387
677.534,,,,,,,,,,,,,,,,,,,,,,,,,,,,,,,,,,,,,0.1869,0.0,0.0096,0.0,57.84,57.84,57.8398,0.0,-0.0114,-0.0035,-0.0009,0.0,57.8658,57.8657,57.8637,0.0,,,,,,,,,,,,,,,,,,
677.535,0.04,0.0,0.0,0.0,0.0,0.0,0.0,0.9229,0.6818,3.0477,0.0,0.0,0.0,0.0,0.0,0.0,0.0,0.0,0.0,0.0,0.7387,0.9999,0.9999,0.9229,0.9995,0.9995,-0.0031,-0.0031,-0.0977,-0.0002,-0.0002,0.0731,0.0,2.0,1.0,0.0,,,,,,,,,,,,,,,,,-0.0007,-0.0013,-0.0018,0.0,0.2612,0.2612,-0.0,0.0,0.0766,0.0766,-0.0,0.0,0.0,0.0,0.0,0.0,0.0,0.7387
677.559,0.04,0.0,0.0,0.0,0.0,0.0,0.0,0.9229,0.6818,3.0477,0.0,0.0,0.0,0.0,0.0,0.0,0.0,0.0,0.0,0.0,0.7387,1.0,0.9999,0.9229,0.9995,0.9995,-0.0032,-0.0032,0.3421,0.0004,0.0004,-0.1123,0.0,2.0,1.0,0.0,0.194,0.0,0.0252,0.0,57.84,57.84,57.8398,0.0,-0.0119,-0.0036,-0.0004,0.0,57.8658,57.8657,57.8637,0.0,0.0017,-0.0014,-0.0008,0.0,0.2612,0.2613,-0.0,0.0,0.0766,0.0766,-0.0,0.0,0.0,0.0,0.0,0.0,0.0,0.7387
677.584,,,,,,,,,,,,,,,,,,,,,,,,,,,,,,,,,,,,,0.1177,0.0,0.2149,0.0,57.84,57.84,57.8399,0.0,0.0072,-0.0041,-0.0004,0.0,57.8658,57.8657,57.8638,0.0,,,,,,,,,,,,,,,,,,
677.585,0.04,0.0,0.0,0.0,0.0,0.0,0.0,0.923,0.6818,3.0477,0.0,0.0,0.0,0.0,0.0,0.0,0.0,0.0,0.0,0.0,0.7387,1.0,1.0,0.923,0.9995,0.9995,0.002,0.002,-0.0282,0.0036,0.0036,0.0256,0.0,2.0,1.0,0.0,,,,,,,,,,,,,,,,,0.0149,-0.0017,-0.0011,0.0,0.2612,0.2612,-0.0,0.0,0.0766,0.0766,-0.0,-0.0,0.0,0.0,0.0,0.0,0.0,0.7387
677.609,0.04,0.0,0.0,0.0,0.0,0.0,0.0,0.9229,0.6818,3.0477,0.0,0.0,0.0,0.0,0.0,0.0,0.0,0.0,0.0,0.0,0.7387,1.0,1.0,0.9229,0.9995,0.9995,-0.0045,-0.0045,-0.1657,-0.0016,-0.0016,-0.0761,0.0,2.0,1.0,0.0,0.2679,0.0,0.0931,0.0,57.84,57.84,57.8398,0.0,-0.0164,-0.0035,-0.0004,0.0,57.8658,57.8657,57.8638,0.0,-0.0065,-0.001,-0.0013,0.0,0.2612,0.2613,-0.0,0.0,0.0766,0.0766,-0.0,-0.0,0.0,0.0,0.0,0.0,0.0,0.7387
677.634,,,,,,,,,,,,,,,,,,,,,,,,,,,,,,,,,,,,,0.1039,0.0,0.0057,0.0,57.84,57.84,57.8399,0.0,-0.0064,-0.0037,-0.0006,0.0,57.8658,57.8657,57.8638,0.0,,,,,,,,,,,,,,,,,,
677.635,0.04,0.0,0.0,0.0,0.0,0.0,0.0,0.9229,0.6818,3.0477,0.0,0.0,0.0,0.0,0.0,0.0,0.0,0.0,0.0,0.0,0.7387,1.0,1.0,0.9229,0.9995,0.9995,-0.0017,-0.0017,-0.0028,0.0001,0.0001,-0.0463,0.0,2.0,1.0,0.0,,,,,,,,,,,,,,,,,0.0004,-0.0013,-0.0018,0.0,0.2612,0.2612,-0.0,0.0,0.0766,0.0766,-0.0,-0.0,0.0,0.0,0.0,0.0,0.0,0.7387
677.659,0.04,0.0,0.0,0.0,0.0,0.0,0.0,0.923,0.6818,3.0477,0.0,0.0,0.0,0.0,0.0,0.0,0.0,0.0,0.0,0.0,0.7387,1.0,1.0,0.923,0.9995,0.9995,-0.0006,-0.0006,0.1242,0.0017,0.0017,0.0682,0.0,2.0,1.0,0.0,0.0349,0.0,0.1043,0.0,57.84,57.84,57.8399,0.0,-0.0021,-0.0038,-0.0016,0.0,57.8658,57.8657,57.8638,0.0,0.0072,-0.0016,-0.0012,0.0,0.2612,0.2613,-0.0,0.0,0.0766,0.0766,-0.0,-0.0,0.0,0.0,0.0,0.0,0.0,0.7387
677.684,0.04,0.0,0.0,0.0,0.0,0.0,0.0,0.9229,0.6818,3.0477,0.0,0.0,0.0,0.0,0.0,0.0,0.0,0.0,0.0,0.0,0.7388,1.0,1.0,0.9229,0.9995,0.9995,0.0012,0.0011,-0.0928,-0.0023,-0.0023,-0.0397,0.0,2.0,1.0,,0.0693,0.0,0.1361,0.0,57.84,57.84,57.8399,0.0,0.0042,-0.004,-0.0001,0.0,57.8658,57.8657,57.8637,0.0,-0.0094,-0.001,-0.0003,0.0,0.2612,0.2612,-0.0,-0.0,0.0766,0.0766,-0.0,0.0,0.0,0.0,0.0,0.0,0.0,0.7388
677.685,,,,,,,,,,,,,,,,,,,,,,,,,,,,,,,,,,,,0.0,,,,,,,,,,,,,,,,,,,,,,,,,,,,,,,,,,
677.709,0.04,0.0,0.0,0.0,0.0,0.0,0.0,0.923,0.6818,3.0477,0.0,0.0,0.0,0.0,0.0,0.0,0.0,0.0,0.0,0.0,0.7387,1.0,1.0,0.923,0.9995,0.9995,-0.0008,-0.0008,0.0912,0.0012,0.0012,-0.0049,0.0,2.0,1.0,,0.0453,0.0,0.0713,0.0,57.84,57.84,57.8399,0.0,-0.0028,-0.0038,-0.0004,0.0,57.8658,57.8657,57.8638,0.0,0.0049,-0.0014,-0.0009,0.0,0.2612,0.2612,-0.0,0.0,0.0766,0.0766,-0.0,0.0,0.0,0.0,0.0,0.0,0.0,0.7387
677.71,,,,,,,,,,,,,,,,,,,,,,,,,,,,,,,,,,,,0.0,,,,,,,,,,,,,,,,,,,,,,,,,,,,,,,,,,
677.734,0.04,0.0,0.0,0.0,0.0,0.0,0.0,0.923,0.6818,3.0477,0.0,0.0,0.0,0.0,0.0,0.0,0.0,0.0,0.0,0.0,0.7387,1.0,1.0,0.923,0.9995,0.9995,0.0001,0.0,0.0237,0.0002,0.0002,0.0078,0.0,2.0,1.0,0.0,0.0032,0.0,0.0105,0.0,57.84,57.84,57.8399,0.0,0.0002,-0.0039,-0.001,0.0,57.8658,57.8657,57.8638,0.0,0.0007,-0.0014,-0.0007,0.0,0.2612,0.2612,-0.0,0.0,0.0766,0.0766,-0.0,-0.0,0.0,0.0,0.0,0.0,0.0,0.7387
677.759,0.04,0.0,0.0,0.0,0.0,0.0,0.0,0.9229,0.6818,3.0477,0.0,0.0,0.0,0.0,0.0,0.0,0.0,0.0,0.0,0.0,0.7387,1.0,0.9999,0.9229,0.9995,0.9995,-0.0043,-0.0043,-0.067,-0.0024,-0.0024,0.0352,0.0,2.0,1.0,,0.257,0.0,0.1429,0.0,57.84,57.84,57.8398,0.0,-0.0157,-0.0035,0.0003,0.0,57.8658,57.8657,57.8637,0.0,-0.0099,-0.0011,-0.0018,0.0,0.2612,0.2613,-0.0,0.0,0.0766,0.0766,-0.0,0.0,0.0,0.0,0.0,0.0,0.0,0.7387
677.76,,,,,,,,,,,,,,,,,,,,,,,,,,,,,,,,,,,,0.0,,,,,,,,,,,,,,,,,,,,,,,,,,,,,,,,,,
677.784,0.04,0.0,0.0,0.0,0.0,0.0,0.0,0.9229,0.6818,3.0477,0.0,0.0,0.0,0.0,0.0,0.0,0.0,0.0,0.0,0.0,0.7387,1.0,1.0,0.9229,0.9995,0.9995,0.0023,0.0023,-0.0786,-0.0013,-0.0013,0.0829,0.0,2.0,1.0,,0.1377,0.0,0.0764,0.0,57.84,57.84,57.8399,0.0,0.0084,-0.0043,-0.0016,0.0,57.8658,57.8657,57.8637,0.0,-0.0053,-0.0011,-0.0025,0.0,0.2612,0.2612,-0.0,0.0,0.0766,0.0766,-0.0,0.0,0.0,0.0,0.0,0.0,0.0,0.7387
677.785,,,,,,,,,,,,,,,,,,,,,,,,,,,,,,,,,,,,0.0,,,,,,,,,,,,,,,,,,,,,,,,,,,,,,,,,,
677.809,0.04,0.0,0.0,0.0,0.0,0.0,0.0,0.9229,0.6818,3.0477,0.0,0.0,0.0,0.0,0.0,0.0,0.0,0.0,0.0,0.0,0.7387,1.0,1.0,0.9229,0.9995,0.9995,0.0004,0.0004,0.2465,0.0005,0.0005,0.0245,0.0,2.0,1.0,0.0,0.0223,0.0,0.0274,0.0,57.84,57.84,57.8399,0.0,0.0014,-0.004,-0.0001,0.0,57.8658,57.8657,57.8638,0.0,0.0019,-0.0014,-0.0016,0.0,0.2612,0.2612,-0.0,0.0,0.0766,0.0766,-0.0,0.0,0.0,0.0,0.0,0.0,0.0,0.7387
677.834,0.04,0.0,0.0,0.0,0.0,0.0,0.0,0.9229,0.6818,3.0477,0.0,0.0,0.0,0.0,0.0,0.0,0.0,0.0,0.0,0.0,0.7388,1.0,1.0,0.9229,0.9995,0.9995,0.007,0.007,-0.0966,0.0001,0.0001,0.025,0.0,2.0,1.0,,0.4179,0.0,0.0044,0.0,57.84,57.84,57.84,0.0,0.0256,-0.0046,-0.0017,0.0,57.8658,57.8657,57.8637,0.0,0.0003,-0.0013,-0.0016,0.0,0.2612,0.2612,-0.0,-0.0,0.0766,0.0766,-0.0,-0.0,0.0,0.0,0.0,0.0,0.0,0.7388
677.835,,,,,,,,,,,,,,,,,,,,,,,,,,,,,,,,,,,,0.0,,,,,,,,,,,,,,,,,,,,,,,,,,,,,,,,,,
677.859,0.04,0.0,0.0,0.0,0.0,0.0,0.0,0.923,0.6818,3.0477,0.0,0.0,0.0,0.0,0.0,0.0,0.0,0.0,0.0,0.0,0.7388,1.0,1.0,0.923,0.9995,0.9995,0.0039,0.0039,-0.1284,0.0018,0.0018,-0.0533,0.0,2.0,1.0,,0.2331,0.0,0.1101,0.0,57.84,57.84,57.8399,0.0,0.0143,-0.0044,-0.002,0.0,57.8658,57.8657,57.8638,0.0,0.0076,-0.0015,-0.0022,0.0,0.2612,0.2612,-0.0,0.0,0.0766,0.0766,-0.0,-0.0,0.0,0.0,0.0,0.0,0.0,0.7388
677.86,,,,,,,,,,,,,,,,,,,,,,,,,,,,,,,,,,,,0.0,,,,,,,,,,,,,,,,,,,,,,,,,,,,,,,,,,
677.884,0.04,0.0,0.0,0.0,0.0,0.0,0.0,0.9229,0.6818,3.0477,0.0,0.0,0.0,0.0,0.0,0.0,0.0,0.0,0.0,0.0,0.7387,1.0,1.0,0.9229,0.9995,0.9995,-0.0026,-0.0026,0.0892,-0.0012,-0.0012,0.0488,0.0,2.0,1.0,0.0,0.1565,0.0,0.0702,0.0,57.84,57.84,57.8398,0.0,-0.0096,-0.0035,-0.0006,0.0,57.8658,57.8657,57.8637,0.0,-0.0049,-0.0012,-0.002,0.0,0.2612,0.2613,-0.0,0.0,0.0766,0.0766,-0.0,0.0,0.0,0.0,0.0,0.0,0.0,0.7387
677.909,0.04,0.0,0.0,0.0,0.0,0.0,0.0,0.9229,0.6818,3.0477,0.0,0.0,0.0,0.0,0.0,0.0,0.0,0.0,0.0,0.0,0.7387,1.0,1.0,0.9229,0.9995,0.9995,-0.0023,-0.0023,0.1599,0.0005,0.0005,0.0085,0.0,2.0,1.0,0.0,0.1401,0.0,0.03,0.0,57.84,57.84,57.8398,0.0,-0.0086,-0.0036,-0.0013,0.0,57.8658,57.8657,57.8637,0.0,0.0021,-0.0014,-0.0022,0.0,0.2612,0.2612,-0.0,-0.0,0.0766,0.0766,-0.0,-0.0,0.0,0.0,0.0,0.0,0.0,0.7387
677.934,0.04,0.0,0.0,0.0,0.0,0.0,0.0,0.9229,0.6818,3.0477,0.0,0.0,0.0,0.0,0.0,0.0,0.0,0.0,0.0,0.0,0.7388,1.0,1.0,0.9229,0.9995,0.9995,0.002,0.002,-0.0898,0.0016,0.0016,-0.0656,0.0,2.0,1.0,0.0,0.1213,0.0,0.0979,0.0,57.84,57.84,57.8399,0.0,0.0074,-0.0042,-0.0006,0.0,57.8658,57.8657,57.8638,0.0,0.0068,-0.0014,-0.0028,0.0,0.2612,0.2612,-0.0,0.0,0.0766,0.0766,-0.0,0.0,0.0,0.0,0.0,0.0,0.0,0.7388
677.959,0.04,0.0,0.0,0.0,0.0,0.0,0.0,0.9229,0.6818,3.0477,0.0,0.0,0.0,0.0,0.0,0.0,0.0,0.0,0.0,0.0,0.7388,1.0,1.0,0.9229,0.9995,0.9995,0.0012,0.0012,0.0387,-0.0003,-0.0003,0.0598,0.0,2.0,1.0,0.0,0.0699,0.0,0.0152,0.0,57.84,57.84,57.84,0.0,0.0043,-0.004,-0.0004,0.0,57.8658,57.8657,57.8638,0.0,-0.0011,-0.0012,-0.0015,0.0,0.2612,0.2612,-0.0,-0.0,0.0766,0.0766,-0.0,0.0,0.0,0.0,0.0,0.0,0.0,0.7388
677.984,0.04,0.0,0.0,0.0,0.0,0.0,0.0,0.9229,0.6818,3.0477,0.0,0.0,0.0,0.0,0.0,0.0,0.0,0.0,0.0,0.0,0.7387,1.0,1.0,0.9229,0.9995,0.9995,-0.004,-0.004,-0.0804,-0.0011,-0.0011,-0.0154,0.0,2.0,1.0,0.0,0.2422,0.0,0.0658,0.0,57.84,57.84,57.8399,0.0,-0.0148,-0.0035,0.0004,0.0,57.8658,57.8657,57.8637,0.0,-0.0046,-0.0011,-0.0016,0.0,0.2612,0.2612,-0.0,0.0,0.0766,0.0766,-0.0,0.0,0.0,0.0,0.0,0.0,0.0,0.7387
678.009,0.04,0.0,0.0,0.0,0.0,0.0,0.0,0.923,0.6818,3.0477,0.0,0.0,0.0,0.0,0.0,0.0,0.0,0.0,0.0,0.0,0.7387,1.0,1.0,0.923,0.9995,0.9995,-0.0029,-0.0029,0.0537,0.0021,0.0021,-0.0053,0.0,2.0,1.0,0.0,0.1732,0.0,0.1271,0.0,57.84,57.84,57.8399,0.0,-0.0106,-0.0036,0.0001,0.0,57.8658,57.8657,57.8638,0.0,0.0088,-0.0015,-0.0015,0.0,0.2612,0.2613,-0.0,0.0,0.0766,0.0766,-0.0,-0.0,0.0,0.0,0.0,0.0,0.0,0.7387
678.034,0.04,0.0,0.0,0.0,0.0,0.0,0.0,0.9229,0.6818,3.0477,0.0,0.0,0.0,0.0,0.0,0.0,0.0,0.0,0.0,0.0,0.7388,0.0,1.0,0.9229,0.9995,0.9995,0.0017,0.0017,-0.1731,-0.0009,-0.0009,-0.0395,0.0,2.0,1.0,,0.1047,0.0,0.0552,0.0,57.84,57.84,57.84,0.0,0.0064,-0.0042,-0.0001,0.0,57.8658,57.8657,57.8638,0.0,-0.0038,-0.0012,-0.0007,0.0,0.2612,0.2612,-0.0,0.0,0.0766,0.0766,-0.0,0.0,0.0,0.0,0.0,0.0,0.0,0.7388
678.035,,,,,,,,,,,,,,,,,,,,,,,,,,,,,,,,,,,,0.0,,,,,,,,,,,,,,,,,,,,,,,,,,,,,,,,,,
678.059,0.04,0.0,0.0,0.0,0.0,0.0,0.0,0.9229,0.6818,3.0477,0.0,0.0,0.0,0.0,0.0,0.0,0.0,0.0,0.0,0.0,0.7387,1.0,1.0,0.9229,0.9995,0.9995,-0.0032,-0.0032,0.0781,-0.0026,-0.0026,0.0145,0.0,2.0,1.0,0.0,0.1905,0.0,0.1568,0.0,57.84,57.84,57.8399,0.0,-0.0117,-0.0036,0.0004,0.0,57.8658,57.8657,57.8637,0.0,-0.0109,-0.001,-0.0013,0.0,0.2612,0.2612,-0.0,0.0,0.0766,0.0766,-0.0,0.0,0.0,0.0,0.0,0.0,0.0,0.7387
678.084,0.04,0.0,0.0,0.0,0.0,0.0,0.0,0.9229,0.6818,3.0477,0.0,0.0,0.0,0.0,0.0,0.0,0.0,0.0,0.0,0.0,0.7387,1.0,1.0,0.9229,0.9995,0.9995,-0.0002,-0.0002,-0.1564,0.0008,0.0008,0.0341,0.0,2.0,1.0,0.0,0.0126,0.0,0.0485,0.0,57.84,57.84,57.8399,0.0,-0.0008,-0.0038,-0.0011,0.0,57.8658,57.8657,57.8638,0.0,0.0034,-0.0014,-0.0018,0.0,0.2612,0.2612,0.0,0.0,0.0766,0.0766,-0.0,-0.0,0.0,0.0,0.0,0.0,0.0,0.7387
678.109,0.04,0.0,0.0,0.0,0.0,0.0,0.0,0.9229,0.6818,3.0477,0.0,0.0,0.0,0.0,0.0,0.0,0.0,0.0,0.0,0.0,0.7388,1.0,1.0,0.9229,0.9995,0.9995,0.0026,0.0026,0.1192,0.0012,0.0012,-0.067,0.0,2.0,1.0,0.0,0.1532,0.0,0.0731,0.0,57.84,57.84,57.84,0.0,0.0094,-0.0042,-0.0011,0.0,57.8658,57.8658,57.8638,0.0,0.0051,-0.0014,-0.0022,0.0,0.2612,0.2612,0.0,-0.0,0.0766,0.0766,-0.0,0.0,0.0,0.0,0.0,0.0,0.0,0.7388
678.134,0.04,0.0,0.0,0.0,0.0,0.0,0.0,0.9229,0.6818,3.0477,0.0,0.0,0.0,0.0,0.0,0.0,0.0,0.0,0.0,0.0,0.7388,1.0,1.0,0.9229,0.9995,0.9995,-0.0006,-0.0006,0.0973,0.0009,0.0009,-0.1816,0.0,2.0,1.0,,0.0366,0.0,0.0563,0.0,57.84,57.84,57.8399,0.0,-0.0022,-0.0038,-0.0004,0.0,57.8658,57.8658,57.8638,0.0,0.0039,-0.0015,-0.0004,0.0,0.2612,0.2612,-0.0,0.0,0.0766,0.0766,-0.0,0.0,0.0,0.0,0.0,0.0,0.0,0.7388
678.135,,,,,,,,,,,,,,,,,,,,,,,,,,,,,,,,,,,,0.0,,,,,,,,,,,,,,,,,,,,,,,,,,,,,,,,,,
678.159,0.04,0.0,0.0,0.0,0.0,0.0,0.0,0.923,0.6818,3.0477,0.0,0.0,0.0,0.0,0.0,0.0,0.0,0.0,0.0,0.0,0.7387,0.0,1.0,0.923,0.9995,0.9995,-0.0016,-0.0016,-0.0355,0.0013,0.0013,0.0485,0.0,2.0,1.0,,0.0986,0.0,0.0769,0.0,57.84,57.84,57.8399,0.0,-0.006,-0.0037,-0.001,0.0,57.8658,57.8657,57.8638,0.0,0.0053,-0.0014,0.0,0.0,0.2612,0.2613,0.0,0.0,0.0766,0.0766,-0.0,-0.0,0.0,0.0,0.0,0.0,0.0,0.7387
678.16,,,,,,,,,,,,,,,,,,,,,,,,,,,,,,,,,,,,0.0,,,,,,,,,,,,,,,,,,,,,,,,,,,,,,,,,,
678.184,0.04,0.0,0.0,0.0,0.0,0.0,0.0,0.9229,0.6818,3.0477,0.0,0.0,0.0,0.0,0.0,0.0,0.0,0.0,0.0,0.0,0.7387,1.0,1.0,0.9229,0.9995,0.9995,-0.0014,-0.0014,-0.2276,-0.0023,-0.0023,-0.0259,0.0,2.0,1.0,,0.0813,0.0,0.1371,0.0,57.84,57.84,57.8399,0.0,-0.005,-0.0037,-0.0003,0.0,57.8658,57.8657,57.8637,0.0,-0.0095,-0.0011,-0.0013,0.0,0.2612,0.2612,0.0,-0.0,0.0766,0.0766,-0.0,-0.0,0.0,0.0,0.0,0.0,0.0,0.7387
678.185,,,,,,,,,,,,,,,,,,,,,,,,,,,,,,,,,,,,0.0,,,,,,,,,,,,,,,,,,,,,,,,,,,,,,,,,,
678.209,0.04,0.0,0.0,0.0,0.0,0.0,0.0,0.9229,0.6818,3.0477,0.0,0.0,0.0,0.0,0.0,0.0,0.0,0.0,0.0,0.0,0.7388,1.0,1.0,0.9229,0.9995,0.9995,0.0049,0.0049,-0.1813,0.0027,0.0027,0.0554,0.0,2.0,1.0,,0.2965,0.0,0.1603,0.0,57.84,57.84,57.84,0.0,0.0182,-0.0045,-0.0004,0.0,57.8658,57.8657,57.8638,0.0,0.0111,-0.0016,-0.0014,0.0,0.2612,0.2612,0.0,-0.0,0.0766,0.0766,-0.0,0.0,0.0,0.0,0.0,0.0,0.0,0.7388
678.21,,,,,,,,,,,,,,,,,,,,,,,,,,,,,,,,,,,,0.0,,,,,,,,,,,,,,,,,,,,,,,,,,,,,,,,,,
678.234,0.04,0.0,0.0,0.0,0.0,0.0,0.0,0.9229,0.6818,3.0477,0.0,0.0,0.0,0.0,0.0,0.0,0.0,0.0,0.0,0.0,0.7388,0.0,1.0,0.9229,0.9995,0.9995,0.0007,0.0007,-0.2208,0.0015,0.0015,-0.0492,0.0,2.0,1.0,,0.0444,0.0,0.0902,0.0,57.84,57.84,57.8399,0.0,0.0027,-0.004,-0.0017,0.0,57.8658,57.8657,57.8638,0.0,0.0062,-0.0015,-0.0017,0.0,0.2612,0.2613,0.0,0.0,0.0766,0.0766,-0.0,-0.0,0.0,0.0,0.0,0.0,0.0,0.7388
678.235,,,,,,,,,,,,,,,,,,,,,,,,,,,,,,,,,,,,0.0,,,,,,,,,,,,,,,,,,,,,,,,,,,,,,,,,,
678.259,0.04,0.0,0.0,0.0,0.0,0.0,0.0,0.923,0.6818,3.0477,0.0,0.0,0.0,0.0,0.0,0.0,0.0,0.0,0.0,0.0,0.7388,0.0,1.0,0.923,0.9995,0.9995,-0.0001,-0.0001,-0.1264,0.0025,0.0025,0.0523,0.0,2.0,1.0,0.0,0.0077,0.0,0.1488,0.0,57.84,57.84,57.8399,0.0,-0.0005,-0.0039,-0.0011,0.0,57.8658,57.8657,57.8638,0.0,0.0103,-0.0015,-0.0022,0.0,0.2612,0.2613,0.0,0.0,0.0766,0.0766,-0.0,-0.0,0.0,0.0,0.0,0.0,0.0,0.7388
678.284,0.04,0.0,0.0,0.0,0.0,0.0,0.0,0.923,0.6818,3.0477,0.0,0.0,0.0,0.0,0.0,0.0,0.0,0.0,0.0,0.0,0.7388,0.0,1.0,0.923,0.9995,0.9995,-0.0004,-0.0004,-0.0403,0.0041,0.0041,0.0019,0.0,2.0,1.0,0.0,0.0214,0.0,0.2459,0.0,57.84,57.84,57.8399,0.0,-0.0013,-0.0038,-0.0011,0.0,57.8658,57.8657,57.8638,0.0,0.017,-0.0017,-0.0015,0.0,0.2612,0.2613,0.0,0.0,0.0766,0.0766,-0.0,-0.0,0.0,0.0,0.0,0.0,0.0,0.7388
678.309,0.04,0.0,0.0,0.0,0.0,0.0,0.0,0.923,0.6818,3.0477,0.0,0.0,0.0,0.0,0.0,0.0,0.0,0.0,0.0,0.0,0.7388,1.0,1.0,0.923,0.9995,0.9995,-0.0011,-0.0011,0.2221,0.0043,0.0043,-0.0243,0.0,2.0,1.0,,0.0686,0.0,0.26,0.0,57.84,57.84,57.8399,0.0,-0.0042,-0.0038,-0.0017,0.0,57.8658,57.8657,57.8638,0.0,0.018,-0.0018,-0.0023,0.0,0.2612,0.2612,0.0,-0.0,0.0766,0.0765,-0.0,-0.0,0.0,0.0,0.0,0.0,0.0,0.7388
678.31,,,,,,,,,,,,,,,,,,,,,,,,,,,,,,,,,,,,0.0,,,,,,,,,,,,,,,,,,,,,,,,,,,,,,,,,,
678.334,0.04,0.0,0.0,0.0,0.0,0.0,0.0,0.9229,0.6818,3.0477,0.0,0.0,0.0,0.0,0.0,0.0,0.0,0.0,0.0,0.0,0.7388,0.0,1.0,0.9229,0.9995,0.9995,-0.0016,-0.0016,-0.2104,0.0006,0.0006,0.0329,0.0,2.0,1.0,0.0,0.0977,0.0,0.0351,0.0,57.84,57.8399,57.8399,0.0,-0.006,-0.0037,-0.001,0.0,57.8658,57.8657,57.8638,0.0,0.0024,-0.0014,-0.0028,0.0,0.2612,0.2613,0.0,0.0,0.0766,0.0766,-0.0,0.0,0.0,0.0,0.0,0.0,0.0,0.7388
678.359,0.04,0.0,0.0,0.0,0.0,0.0,0.0,0.9229,0.6818,3.0477,0.0,0.0,0.0,0.0,0.0,0.0,0.0,0.0,0.0,0.0,0.7387,1.0,1.0,0.9229,0.9995,0.9995,-0.0027,-0.0027,0.0579,0.0017,0.0017,0.0203,0.0,2.0,1.0,0.0,0.1613,0.0,0.0996,0.0,57.84,57.8399,57.8399,0.0,-0.0099,-0.0036,-0.0007,0.0,57.8658,57.8657,57.8638,0.0,0.0069,-0.0015,-0.0022,0.0,0.2612,0.2612,0.0,-0.0,0.0766,0.0766,-0.0,0.0,0.0,0.0,0.0,0.0,0.0,0.7387
678.384,0.04,0.0,0.0,0.0,0.0,0.0,0.0,0.9229,0.6818,3.0477,0.0,0.0,0.0,0.0,0.0,0.0,0.0,0.0,0.0,0.0,0.7387,1.0,1.0,0.9229,0.9995,0.9995,-0.002,-0.002,-0.1294,0.0004,0.0004,0.0102,0.0,2.0,1.0,,0.1221,0.0,0.027,0.0,57.84,57.8399,57.8399,0.0,-0.0075,-0.0036,-0.0007,0.0,57.8658,57.8657,57.8637,0.0,0.0019,-0.0014,-0.0011,0.0,0.2612,0.2612,0.0,0.0,0.0766,0.0766,-0.0,0.0,0.0,0.0,0.0,0.0,0.0,0.7387
678.385,,,,,,,,,,,,,,,,,,,,,,,,,,,,,,,,,,,,0.0,,,,,,,,,,,,,,,,,,,,,,,,,,,,,,,,,,
678.409,0.04,0.0,0.0,0.0,0.0,0.0,0.0,0.9229,0.6818,3.0477,0.0,0.0,0.0,0.0,0.0,0.0,0.0,0.0,0.0,0.0,0.7387,0.0,1.0,0.9229,0.9995,0.9995,-0.0037,-0.0037,0.1239,0.004,0.004,-0.0679,0.0,2.0,1.0,0.0,0.2201,0.0,0.2387,0.0,57.84,57.8399,57.8399,0.0,-0.0135,-0.0034,-0.001,0.0,57.8658,57.8657,57.8638,0.0,0.0165,-0.0018,-0.0016,0.0,0.2612,0.2613,0.0,0.0,0.0766,0.0766,-0.0,-0.0,0.0,0.0,0.0,0.0,0.0,0.7387
678.434,0.0399,0.0,0.0,0.0,0.0,0.0,0.0,0.923,0.6818,3.0477,0.0,0.0,0.0,0.0,0.0,0.0,0.0,0.0,0.0,0.0,0.7387,0.0,1.0,0.923,0.9995,0.9995,-0.0018,-0.0018,0.0672,0.0022,0.0022,-0.0717,0.0,2.0,1.0,0.0,0.1063,0.0,0.1301,0.0,57.8399,57.8399,57.8399,0.0,-0.0065,-0.0037,-0.0006,0.0,57.8658,57.8657,57.8638,0.0,0.009,-0.0016,-0.0011,0.0,0.2612,0.2613,0.0,0.0,0.0766,0.0766,-0.0,-0.0,0.0,0.0,0.0,0.0,0.0,0.7387
678.459,0.0399,0.0,0.0,0.0,0.0,0.0,0.0,0.923,0.6818,3.0477,0.0,0.0,0.0,0.0,0.0,0.0,0.0,0.0,0.0,0.0,0.7388,1.0,1.0,0.923,0.9995,0.9995,0.0008,0.0008,0.0774,0.0037,0.0037,0.0803,0.0,2.0,1.0,0.0,0.0475,0.0,0.2209,0.0,57.8399,57.8399,57.8399,0.0,0.0029,-0.0041,-0.0009,0.0,57.8658,57.8657,57.8638,0.0,0.0153,-0.0017,-0.0026,0.0,0.2612,0.2612,0.0,-0.0,0.0766,0.0766,-0.0,-0.0,0.0,0.0,0.0,0.0,0.0,0.7388
678.484,0.0399,0.0,0.0,0.0,0.0,0.0,0.0,0.9229,0.6818,3.0477,0.0,0.0,0.0,0.0,0.0,0.0,0.0,0.0,0.0,0.0,0.7387,0.0,1.0,0.9229,0.9995,0.9995,-0.0028,-0.0028,-0.0167,0.0011,0.0011,0.0498,0.0,2.0,1.0,0.0,0.1667,0.0,0.0681,0.0,57.8399,57.8399,57.8399,0.0,-0.0102,-0.0036,0.0,0.0,57.8658,57.8657,57.8638,0.0,0.0047,-0.0014,-0.0006,0.0,0.2612,0.2613,0.0,0.0,0.0766,0.0766,-0.0,-0.0,0.0,0.0,0.0,0.0,0.0,0.7387
678.509,0.0399,0.0,0.0,0.0,0.0,0.0,0.0,0.9229,0.6818,3.0477,0.0,0.0,0.0,0.0,0.0,0.0,0.0,0.0,0.0,0.0,0.7387,0.0001,1.0,0.9229,0.9995,0.9995,-0.0034,-0.0034,-0.0579,-0.0005,-0.0005,0.0068,0.0,2.0,1.0,0.0,0.203,0.0,0.0308,0.0,57.8399,57.8399,57.8399,0.0,-0.0124,-0.0035,-0.0001,0.0,57.8658,57.8658,57.8637,0.0,-0.0021,-0.0012,-0.0011,0.0,0.2612,0.2613,0.0,0.0001,0.0766,0.0766,-0.0,-0.0,0.0,0.0,0.0,0.0,0.0,0.7387
678.534,0.0399,0.0,0.0,0.0,0.0,0.0,0.0,0.9229,0.6818,3.0477,0.0,0.0,0.0,0.0,0.0,0.0,0.0,0.0,0.0,0.0,0.7388,0.0,1.0,0.9229,0.9995,0.9995,0.0008,0.0008,0.0768,-0.0021,-0.0021,0.1012,0.0,2.0,1.0,0.0,0.0479,0.0,0.1265,0.0,57.8399,57.8399,57.8399,0.0,0.0029,-0.004,-0.0004,0.0,57.8658,57.8658,57.8637,0.0,-0.0088,-0.0009,-0.0011,0.0,0.2612,0.2613,0.0,0.0,0.0766,0.0766,-0.0,-0.0,0.0,0.0,0.0,0.0,0.0,0.7388
678.559,0.0399,0.0,0.0,0.0,0.0,0.0,0.0,0.9229,0.6818,3.0477,0.0,0.0,0.0,0.0,0.0,0.0,0.0,0.0,0.0,0.0,0.7388,0.0,0.0,0.9229,0.9995,0.9995,0.001,0.001,0.1119,-0.0002,-0.0002,-0.0842,0.0,2.0,1.0,0.0,0.0603,0.0,0.0101,0.0,57.8399,57.8399,57.84,0.0,0.0037,-0.004,0.0,0.0,57.8658,57.8658,57.8637,0.0,-0.0007,-0.0013,-0.0014,0.0,0.2612,0.2612,0.0,-0.0,0.0766,0.0766,-0.0,0.0,0.0,0.0,0.0,0.0,0.0,0.7388
678.584,0.0399,0.0,0.0,0.0,0.0,0.0,0.0,0.9229,0.6818,3.0477,0.0,0.0,0.0,0.0,0.0,0.0,0.0,0.0,0.0,0.0,0.7388,0.0,1.0,0.9229,0.9995,0.9995,0.0003,0.0003,0.1491,-0.0008,-0.0008,-0.0158,0.0,2.0,1.0,0.0,0.0173,0.0,0.0485,0.0,57.8399,57.8399,57.8399,0.0,0.0011,-0.0039,-0.0004,0.0,57.8658,57.8658,57.8637,0.0,-0.0034,-0.0011,-0.0025,0.0,0.2612,0.2613,0.0,0.0,0.0766,0.0766,-0.0,-0.0,0.0,0.0,0.0,0.0,0.0,0.7388
678.609,0.0399,0.0,0.0,0.0,0.0,0.0,0.0,0.9229,0.6818,3.0477,0.0,0.0,0.0,0.0,0.0,0.0,0.0,0.0,0.0,0.0,0.7388,1.0,0.0,0.9229,0.9995,0.9995,0.0036,0.0036,-0.0911,-0.0006,-0.0007,0.1046,0.0,2.0,1.0,0.0,0.2184,0.0,0.0389,0.0,57.8399,57.8399,57.84,0.0,0.0134,-0.0043,-0.0004,0.0,57.8658,57.8658,57.8637,0.0,-0.0027,-0.0013,-0.0025,0.0,0.2612,0.2612,0.0,-0.0,0.0766,0.0766,-0.0,-0.0,0.0,0.0,0.0,0.0,0.0,0.7388
678.634,0.0399,0.0,0.0,0.0,0.0,0.0,0.0,0.9229,0.6818,3.0477,0.0,0.0,0.0,0.0,0.0,0.0,0.0,0.0,0.0,0.0,0.7387,1.0,1.0,0.9229,0.9995,0.9995,-0.0028,-0.0028,-0.1256,-0.0008,-0.0008,-0.0095,0.0,2.0,1.0,0.0,0.1706,0.0,0.0486,0.0,57.8399,57.8399,57.8399,0.0,-0.0104,-0.0035,-0.0011,0.0,57.8658,57.8657,57.8637,0.0,-0.0034,-0.0012,-0.0016,0.0,0.2612,0.2613,0.0,0.0,0.0766,0.0766,-0.0,0.0,0.0,0.0,0.0,0.0,0.0,0.7387
678.659,0.0399,0.0,0.0,0.0,0.0,0.0,0.0,0.9229,0.6818,3.0477,0.0,0.0,0.0,0.0,0.0,0.0,0.0,0.0,0.0,0.0,0.7387,0.0,1.0,0.9229,0.9995,0.9995,-0.0016,-0.0016,-0.2752,-0.0019,-0.0019,0.0617,0.0,2.0,1.0,0.0,0.0942,0.0,0.1156,0.0,57.8399,57.8399,57.8399,0.0,-0.0058,-0.0038,-0.0003,0.0,57.8658,57.8657,57.8637,0.0,-0.008,-0.0011,-0.0013,0.0,0.2612,0.2613,0.0,0.0,0.0766,0.0766,-0.0,0.0,0.0,0.0,0.0,0.0,0.0,0.7387
678.684,0.0399,0.0,0.0,0.0,0.0,0.0,0.0,0.9229,0.6818,3.0477,0.0,0.0,0.0,0.0,0.0,0.0,0.0,0.0,0.0,0.0,0.7387,0.0,1.0,0.9229,0.9995,0.9995,-0.0006,-0.0005,-0.1177,-0.0042,-0.0042,-0.0247,0.0,2.0,1.0,0.0,0.0334,0.0,0.2543,0.0,57.8399,57.8399,57.8399,0.0,-0.002,-0.0038,-0.0011,0.0,57.8658,57.8657,57.8637,0.0,-0.0176,-0.0007,-0.0014,0.0,0.2612,0.2613,0.0,0.0,0.0766,0.0766,-0.0,0.0,0.0,0.0,0.0,0.0,0.0,0.7387
678.709,0.0399,0.0,0.0,0.0,0.0,0.0,0.0,0.9229,0.6818,3.0477,0.0,0.0,0.0,0.0,0.0,0.0,0.0,0.0,0.0,0.0,0.7387,1.0,1.0,0.9229,0.9995,0.9995,-0.0028,-0.0028,0.1076,-0.0039,-0.0039,0.0296,0.0,2.0,1.0,,0.1697,0.0,0.2339,0.0,57.8399,57.8399,57.8399,0.0,-0.0104,-0.0037,-0.0004,0.0,57.8658,57.8657,57.8637,0.0,-0.0162,-0.0008,-0.0011,0.0,0.2612,0.2612,0.0,0.0,0.0766,0.0766,0.0,0.0,0.0,0.0,0.0,0.0,0.0,0.7387
678.71,,,,,,,,,,,,,,,,,,,,,,,,,,,,,,,,,,,,0.0,,,,,,,,,,,,,,,,,,,,,,,,,,,,,,,,,,
678.734,0.0399,0.0,0.0,0.0,0.0,0.0,0.0,0.9229,0.6818,3.0477,0.0,0.0,0.0,0.0,0.0,0.0,0.0,0.0,0.0,0.0,0.7387,0.0,1.0,0.9229,0.9995,0.9995,-0.0024,-0.0024,0.0854,-0.0009,-0.0009,0.0475,0.0,2.0,1.0,0.0,0.1464,0.0,0.0513,0.0,57.8399,57.8399,57.8399,0.0,-0.009,-0.0037,-0.0004,0.0,57.8658,57.8657,57.8638,0.0,-0.0036,-0.0012,-0.0019,0.0,0.2612,0.2613,0.0,0.0,0.0766,0.0766,-0.0,-0.0,0.0,0.0,0.0,0.0,0.0,0.7387
678.759,0.0399,0.0,0.0,0.0,0.0,0.0,0.0,0.9229,0.6818,3.0477,0.0,0.0,0.0,0.0,0.0,0.0,0.0,0.0,0.0,0.0,0.7388,1.0,1.0,0.9229,0.9995,0.9995,0.0014,0.0014,0.1513,-0.0026,-0.0026,0.0607,0.0,2.0,1.0,0.0,0.0818,0.0,0.1589,0.0,57.8399,57.8399,57.8399,0.0,0.005,-0.0041,-0.001,0.0,57.8658,57.8657,57.8637,0.0,-0.011,-0.0009,-0.0017,0.0,0.2612,0.2612,0.0,-0.0,0.0766,0.0766,-0.0,0.0,0.0,0.0,0.0,0.0,0.0,0.7388
678.784,0.0399,0.0,0.0,0.0,0.0,0.0,0.0,0.9229,0.6818,3.0477,0.0,0.0,0.0,0.0,0.0,0.0,0.0,0.0,0.0,0.0,0.7388,1.0,1.0,0.9229,0.9995,0.9995,0.001,0.001,0.116,-0.0031,-0.0031,0.0041,0.0,2.0,1.0,0.0,0.0601,0.0,0.1855,0.0,57.8399,57.8399,57.8399,0.0,0.0037,-0.0039,-0.0013,0.0,57.8658,57.8657,57.8637,0.0,-0.0129,-0.0009,-0.0014,0.0,0.2612,0.2612,0.0,-0.0,0.0766,0.0766,-0.0,0.0,0.0,0.0,0.0,0.0,0.0,0.7388
678.809,0.0399,0.0,0.0,0.0,0.0,0.0,0.0,0.9229,0.6818,3.0477,0.0,0.0,0.0,0.0,0.0,0.0,0.0,0.0,0.0,0.0,0.7387,0.0,1.0,0.9229,0.9995,0.9995,0.0017,0.0017,0.0962,-0.0051,-0.0051,-0.058,0.0,2.0,1.0,0.0,0.1037,0.0,0.3073,0.0,57.8399,57.8399,57.8399,0.0,0.0063,-0.0042,-0.0003,0.0,57.8658,57.8657,57.8637,0.0,-0.0213,-0.0006,-0.0014,0.0,0.2612,0.2613,0.0,0.0,0.0766,0.0766,-0.0,0.0,0.0,0.0,0.0,0.0,0.0,0.7387
678.834,0.0399,0.0,0.0,0.0,0.0,0.0,0.0,0.9229,0.6818,3.0477,0.0,0.0,0.0,0.0,0.0,0.0,0.0,0.0,0.0,0.0,0.7387,1.0,1.0,0.9229,0.9995,0.9995,-0.0009,-0.0009,-0.1184,-0.0077,-0.0077,-0.0182,0.0,2.0,1.0,0.0,0.0516,0.0,0.4605,0.0,57.8399,57.8399,57.8399,0.0,-0.0032,-0.0039,-0.0011,0.0,57.8658,57.8657,57.8636,0.0,-0.0319,-0.0003,-0.0019,0.0,0.2612,0.2613,0.0,0.0,0.0766,0.0766,0.0,0.0,0.0,0.0,0.0,0.0,0.0,0.7387
678.859,0.0399,0.0,0.0,0.0,0.0,0.0,0.0,0.9229,0.6818,3.0477,0.0,0.0,0.0,0.0,0.0,0.0,0.0,0.0,0.0,0.0,0.7387,0.0,1.0,0.9229,0.9995,0.9995,0.0,0.0,-0.0373,-0.0055,-0.0055,-0.0187,0.0,2.0,1.0,0.0,0.0015,0.0,0.3315,0.0,57.8399,57.8399,57.8399,0.0,0.0001,-0.0039,-0.0013,0.0,57.8658,57.8657,57.8637,0.0,-0.023,-0.0005,-0.0018,0.0,0.2612,0.2613,0.0,0.0,0.0766,0.0766,0.0,0.0,0.0,0.0,0.0,0.0,0.0,0.7387
678.884,0.0399,0.0,0.0,0.0,0.0,0.0,0.0,0.9229,0.6818,3.0477,0.0,0.0,0.0,0.0,0.0,0.0,0.0,0.0,0.0,0.0,0.7388,0.0,0.0,0.9229,0.9995,0.9995,0.003,0.003,-0.048,-0.0025,-0.0025,-0.1262,0.0,2.0,1.0,0.0,0.1808,0.0,0.1482,0.0,57.8399,57.8399,57.84,0.0,0.0111,-0.0043,-0.0008,0.0,57.8658,57.8657,57.8637,0.0,-0.0103,-0.0009,-0.0014,0.0,0.2612,0.2612,0.0,-0.0,0.0766,0.0766,0.0,0.0,0.0,0.0,0.0,0.0,0.0,0.7388
678.909,0.0399,0.0,0.0,0.0,0.0,0.0,0.0,0.9229,0.6818,3.0477,0.0,0.0,0.0,0.0,0.0,0.0,0.0,0.0,0.0,0.0,0.7388,1.0,0.0,0.9229,0.9995,0.9995,0.0047,0.0048,0.0278,-0.0026,-0.0026,-0.0707,0.0,2.0,1.0,0.0,0.2844,0.0,0.1538,0.0,57.8399,57.8399,57.84,0.0,0.0174,-0.0045,-0.0014,0.0,57.8658,57.8657,57.8637,0.0,-0.0107,-0.0009,-0.0006,0.0,0.2612,0.2612,0.0,-0.0,0.0766,0.0766,0.0,0.0,0.0,0.0,0.0,0.0,0.0,0.7388
678.934,0.0399,0.0,0.0,0.0,0.0,0.0,0.0,0.9229,0.6818,3.0477,0.0,0.0,0.0,0.0,0.0,0.0,0.0,0.0,0.0,0.0,0.7388,1.0,0.0,0.9229,0.9995,0.9995,0.0022,0.0022,-0.2383,-0.0021,-0.0021,0.0361,0.0,2.0,1.0,,0.1294,0.0,0.1245,0.0,57.8399,57.8399,57.84,0.0,0.0079,-0.0042,-0.0009,0.0,57.8658,57.8657,57.8637,0.0,-0.0086,-0.001,-0.0015,0.0,0.2612,0.2612,0.0,-0.0,0.0766,0.0766,0.0,0.0,0.0,0.0,0.0,0.0,0.0,0.7388
678.935,,,,,,,,,,,,,,,,,,,,,,,,,,,,,,,,,,,,0.0,,,,,,,,,,,,,,,,,,,,,,,,,,,,,,,,,,
678.959,0.0399,0.0,0.0,0.0,0.0,0.0,0.0,0.9229,0.6818,3.0477,0.0,0.0,0.0,0.0,0.0,0.0,0.0,0.0,0.0,0.0,0.7388,1.0,0.0,0.9229,0.9995,0.9995,-0.0004,-0.0004,-0.0405,-0.0021,-0.0021,-0.1126,0.0,2.0,1.0,0.0,0.0218,0.0,0.1266,0.0,57.8399,57.8399,57.8399,0.0,-0.0013,-0.0039,-0.001,0.0,57.8658,57.8657,57.8637,0.0,-0.0088,-0.0009,-0.002,0.0,0.2612,0.2612,0.0,-0.0,0.0766,0.0766,0.0,0.0,0.0,0.0,0.0,0.0,0.0,0.7388
678.984,0.0399,0.0,0.0,0.0,0.0,0.0,0.0,0.9229,0.6818,3.0477,0.0,0.0,0.0,0.0,0.0,0.0,0.0,0.0,0.0,0.0,0.7387,1.0,1.0,0.9229,0.9995,0.9995,-0.0019,-0.0019,0.0294,-0.0017,-0.0017,0.0115,0.0,2.0,1.0,0.0,0.113,0.0,0.1,0.0,57.8399,57.8399,57.8399,0.0,-0.0069,-0.0037,-0.001,0.0,57.8658,57.8657,57.8637,0.0,-0.0069,-0.001,0.0004,0.0,0.2612,0.2612,0.0,-0.0,0.0766,0.0766,0.0,0.0,0.0,0.0,0.0,0.0,0.0,0.7387
679.009,0.0399,0.0,0.0,0.0,0.0,0.0,0.0,0.923,0.6818,3.0477,0.0,0.0,0.0,0.0,0.0,0.0,0.0,0.0,0.0,0.0,0.7388,1.0,0.0,0.923,0.9995,0.9995,0.0007,0.0007,0.075,0.0023,0.0023,-0.0484,0.0,2.0,1.0,0.0,0.0429,0.0,0.1362,0.0,57.8399,57.8399,57.8399,0.0,0.0026,-0.004,-0.0,0.0,57.8658,57.8657,57.8638,0.0,0.0094,-0.0015,-0.0025,0.0,0.2612,0.2612,0.0,-0.0,0.0766,0.0766,0.0,0.0,0.0,0.0,0.0,0.0,0.0,0.7388
679.034,0.0399,0.0,0.0,0.0,0.0,0.0,0.0,0.9229,0.6818,3.0477,0.0,0.0,0.0,0.0,0.0,0.0,0.0,0.0,0.0,0.0,0.7387,1.0,1.0,0.9229,0.9995,0.9995,-0.0012,-0.0012,-0.1473,-0.0016,-0.0016,0.0055,0.0,2.0,1.0,0.0,0.0703,0.0,0.0962,0.0,57.8399,57.8399,57.8399,0.0,-0.0043,-0.0038,0.0001,0.0,57.8658,57.8657,57.8637,0.0,-0.0067,-0.0011,-0.0011,0.0,0.2612,0.2612,0.0,-0.0,0.0766,0.0766,0.0,0.0,0.0,0.0,0.0,0.0,0.0,0.7387
679.059,0.0399,0.0,0.0,0.0,0.0,0.0,0.0,0.923,0.6818,3.0477,0.0,0.0,0.0,0.0,0.0,0.0,0.0,0.0,0.0,0.0,0.7387,1.0,1.0,0.923,0.9995,0.9995,0.0016,0.0016,0.1732,0.0016,0.0016,-0.0036,0.0,2.0,1.0,0.0,0.0977,0.0,0.0967,0.0,57.8399,57.8399,57.8399,0.0,0.006,-0.004,-0.001,0.0,57.8658,57.8657,57.8638,0.0,0.0067,-0.0015,-0.0009,0.0,0.2612,0.2612,0.0,0.0,0.0766,0.0766,0.0,-0.0,0.0,0.0,0.0,0.0,0.0,0.7387
679.084,0.0399,0.0,0.0,0.0,0.0,0.0,0.0,0.9229,0.6818,3.0477,0.0,0.0,0.0,0.0,0.0,0.0,0.0,0.0,0.0,0.0,0.7387,1.0,1.0,0.9229,0.9995,0.9995,-0.0002,-0.0002,-0.1567,-0.0017,-0.0017,0.0275,0.0,2.0,1.0,0.0,0.0118,0.0,0.1029,0.0,57.8399,57.8399,57.8399,0.0,-0.0007,-0.0039,-0.0011,0.0,57.8658,57.8657,57.8638,0.0,-0.0071,-0.0011,-0.0014,0.0,0.2612,0.2613,0.0,0.0,0.0766,0.0766,0.0,-0.0,0.0,0.0,0.0,0.0,0.0,0.7387
679.11,0.0399,0.0,0.0,0.0,0.0,0.0,0.0,0.923,0.6818,3.0477,0.0,0.0,0.0,0.0,0.0,0.0,0.0,0.0,0.0,0.0,0.7387,1.0,1.0,0.923,0.9995,0.9995,-0.0019,-0.0019,-0.0231,0.0003,0.0003,0.0439,0.0,2.0,1.0,0.0,0.1129,0.0,0.0154,0.0,57.8399,57.8399,57.8398,0.0,-0.0069,-0.0038,-0.0004,0.0,57.8658,57.8657,57.8638,0.0,0.0011,-0.0013,-0.0018,0.0,0.2612,0.2612,0.0,-0.0,0.0766,0.0766,0.0,0.0,0.0,0.0,0.0,0.0,0.0,0.7387
679.134,0.0399,0.0,0.0,0.0,0.0,0.0,0.0,0.923,0.6818,3.0477,0.0,0.0,0.0,0.0,0.0,0.0,0.0,0.0,0.0,0.0,0.7387,1.0,1.0,0.923,0.9995,0.9995,-0.0035,-0.0035,0.3029,0.0013,0.0013,-0.0233,0.0,2.0,1.0,0.0,0.2086,0.0,0.0759,0.0,57.8399,57.8399,57.8398,0.0,-0.0128,-0.0036,-0.0004,0.0,57.8658,57.8657,57.8638,0.0,0.0053,-0.0014,-0.0021,0.0,0.2612,0.2612,0.0,0.0,0.0766,0.0766,0.0,-0.0,0.0,0.0,0.0,0.0,0.0,0.7387
679.159,,,,,,,,,,,,,,,,,,,,,,,,,,,,,,,,,,,,,0.1008,0.0,0.083,0.0,57.8399,57.8399,57.8398,0.0,-0.0062,-0.0037,-0.001,0.0,57.8658,57.8657,57.8638,0.0,,,,,,,,,,,,,,,,,,
679.16,0.0399,0.0,0.0,0.0,0.0,0.0,0.0,0.923,0.6818,3.0477,0.0,0.0,0.0,0.0,0.0,0.0,0.0,0.0,0.0,0.0,0.7387,0.0,1.0,0.923,0.9995,0.9995,-0.0017,-0.0017,0.1144,0.0014,0.0014,0.1045,0.0,2.0,1.0,0.0,,,,,,,,,,,,,,,,,0.0057,-0.0014,-0.0014,0.0,0.2612,0.2613,0.0,0.0,0.0766,0.0766,0.0,0.0,0.0,0.0,0.0,0.0,0.0,0.7387
679.184,0.0399,0.0,0.0,0.0,0.0,0.0,0.0,0.9229,0.6818,3.0477,0.0,0.0,0.0,0.0,0.0,0.0,0.0,0.0,0.0,0.0,0.7387,1.0,1.0,0.9229,0.9995,0.9995,-0.0043,-0.0043,-0.1188,-0.0037,-0.0037,-0.0332,0.0,2.0,1.0,0.0,0.2596,0.0,0.2215,0.0,57.8399,57.8399,57.8398,0.0,-0.0159,-0.0034,-0.0016,0.0,57.8658,57.8657,57.8637,0.0,-0.0153,-0.0008,-0.0014,0.0,0.2612,0.2613,0.0,0.0,0.0766,0.0766,0.0,0.0,0.0,0.0,0.0,0.0,0.0,0.7387
679.209,0.0399,0.0,0.0,0.0,0.0,0.0,0.0,0.923,0.6817,3.0477,0.0,0.0,0.0,0.0,0.0,0.0,0.0,0.0,0.0,0.0,0.7387,1.0,1.0,0.923,0.9996,0.9995,-0.0029,-0.0029,0.1584,0.0015,0.0015,-0.0028,0.0,2.0,1.0,,0.1764,0.0,0.0901,0.0,57.8399,57.8399,57.8398,0.0,-0.0108,-0.0036,-0.001,0.0,57.8657,57.8657,57.8638,0.0,0.0062,-0.0014,-0.0023,0.0,0.2612,0.2612,0.0,-0.0,0.0766,0.0766,0.0,0.0,0.0,0.0,0.0,0.0,0.0,0.7387
679.21,,,,,,,,,,,,,,,,,,,,,,,,,,,,,,,,,,,,0.0,,,,,,,,,,,,,,,,,,,,,,,,,,,,,,,,,,
679.234,0.0399,0.0,0.0,0.0,0.0,0.0,0.0,0.923,0.6817,3.0477,0.0,0.0,0.0,0.0,0.0,0.0,0.0,0.0,0.0,0.0,0.7387,1.0,1.0,0.923,0.9995,0.9995,0.0038,0.0038,0.2751,0.0027,0.0027,0.0871,0.0,2.0,1.0,,0.2301,0.0,0.1644,0.0,57.8399,57.8399,57.8399,0.0,0.0141,-0.0043,-0.0011,0.0,57.8657,57.8657,57.8638,0.0,0.0114,-0.0016,-0.0014,0.0,0.2612,0.2612,0.0,-0.0,0.0766,0.0766,0.0,-0.0,0.0,0.0,0.0,0.0,0.0,0.7387
679.235,,,,,,,,,,,,,,,,,,,,,,,,,,,,,,,,,,,,0.0,,,,,,,,,,,,,,,,,,,,,,,,,,,,,,,,,,
679.259,0.0399,0.0,0.0,0.0,0.0,0.0,0.0,0.923,0.6817,3.0477,0.0,0.0,0.0,0.0,0.0,0.0,0.0,0.0,0.0,0.0,0.7387,1.0,1.0,0.923,0.9995,0.9995,-0.0012,-0.0012,-0.0779,0.0034,0.0034,0.0754,0.0,2.0,1.0,0.0,0.0733,0.0,0.2063,0.0,57.8399,57.8399,57.8398,0.0,-0.0045,-0.0038,-0.001,0.0,57.8657,57.8657,57.8638,0.0,0.0143,-0.0017,-0.001,0.0,0.2612,0.2613,0.0,0.0,0.0766,0.0766,0.0,0.0,0.0,0.0,0.0,0.0,0.0,0.7387
679.284,0.0399,0.0,0.0,0.0,0.0,0.0,0.0,0.923,0.6817,3.0477,0.0,0.0,0.0,0.0,0.0,0.0,0.0,0.0,0.0,0.0,0.7387,1.0,1.0,0.923,0.9995,0.9995,-0.0009,-0.0009,0.2586,0.0048,0.0048,0.0412,0.0,2.0,1.0,0.0,0.055,0.0,0.2861,0.0,57.8399,57.8399,57.8398,0.0,-0.0034,-0.0039,-0.0003,0.0,57.8657,57.8657,57.8638,0.0,0.0198,-0.0019,-0.0033,0.0,0.2612,0.2613,0.0,0.0,0.0766,0.0766,0.0,-0.0,0.0,0.0,0.0,0.0,0.0,0.7387
679.309,0.0399,0.0,0.0,0.0,0.0,0.0,0.0,0.9229,0.6817,3.0477,0.0,0.0,0.0,0.0,0.0,0.0,0.0,0.0,0.0,0.0,0.7387,1.0,1.0,0.9229,0.9995,0.9995,-0.0014,-0.0014,-0.065,0.0021,0.0021,0.0094,0.0,2.0,1.0,0.0,0.0869,0.0,0.126,0.0,57.8399,57.8399,57.8398,0.0,-0.0053,-0.0037,0.0002,0.0,57.8657,57.8657,57.8638,0.0,0.0087,-0.0015,-0.0017,0.0,0.2612,0.2613,0.0,0.0,0.0766,0.0766,0.0,0.0,0.0,0.0,0.0,0.0,0.0,0.7387
679.334,0.0399,0.0,0.0,0.0,0.0,0.0,0.0,0.9229,0.6817,3.0477,0.0,0.0,0.0,0.0,0.0,0.0,0.0,0.0,0.0,0.0,0.7387,0.0,1.0,0.9229,0.9995,0.9995,-0.0008,-0.0008,-0.1683,-0.0041,-0.0041,0.021,0.0,2.0,1.0,0.0,0.0485,0.0,0.246,0.0,57.8399,57.8399,57.8398,0.0,-0.003,-0.0038,-0.001,0.0,57.8657,57.8657,57.8636,0.0,-0.017,-0.0008,-0.0007,0.0,0.2612,0.2613,0.0,0.0,0.0766,0.0766,0.0,0.0,0.0,0.0,0.0,0.0,0.0,0.7387
679.359,0.0399,0.0,0.0,0.0,0.0,0.0,0.0,0.9229,0.6817,3.0477,0.0,0.0,0.0,0.0,0.0,0.0,0.0,0.0,0.0,0.0,0.7387,1.0,1.0,0.9229,0.9995,0.9995,0.0022,0.0022,-0.0415,-0.0005,-0.0005,-0.1306,0.0,2.0,1.0,0.0,0.1344,0.0,0.0304,0.0,57.8399,57.8399,57.8399,0.0,0.0082,-0.0042,-0.0004,0.0,57.8657,57.8657,57.8637,0.0,-0.0021,-0.0012,-0.0014,0.0,0.2612,0.2612,0.0,-0.0,0.0766,0.0766,0.0,0.0,0.0,0.0,0.0,0.0,0.0,0.7387
679.384,0.0399,0.0,0.0,0.0,0.0,0.0,0.0,0.9229,0.6817,3.0477,0.0,0.0,0.0,0.0,0.0,0.0,0.0,0.0,0.0,0.0,0.7387,1.0,1.0,0.9229,0.9995,0.9995,0.002,0.002,-0.0571,-0.005,-0.005,0.0251,0.0,2.0,1.0,0.0,0.1183,0.0,0.2981,0.0,57.8399,57.8399,57.8399,0.0,0.0072,-0.0041,-0.0011,0.0,57.8657,57.8657,57.8636,0.0,-0.0206,-0.0007,-0.0014,0.0,0.2612,0.2612,0.0,-0.0,0.0766,0.0766,0.0,0.0,0.0,0.0,0.0,0.0,0.0,0.7387
679.409,0.0399,0.0,0.0,0.0,0.0,0.0,0.0,0.9229,0.6817,3.0477,0.0,0.0,0.0,0.0,0.0,0.0,0.0,0.0,0.0,0.0,0.7388,0.0,1.0,0.9229,0.9995,0.9995,0.003,0.003,0.1404,-0.0009,-0.0009,0.0628,0.0,2.0,1.0,0.0,0.1793,0.0,0.0562,0.0,57.8399,57.8399,57.8399,0.0,0.011,-0.0043,-0.0008,0.0,57.8657,57.8657,57.8637,0.0,-0.0039,-0.0011,-0.0011,0.0,0.2612,0.2613,0.0,0.0,0.0766,0.0766,0.0,-0.0,0.0,0.0,0.0,0.0,0.0,0.7388
